{"type": "FeatureCollection", "crs": {"type": "name", "properties": {"name": "urn:ogc:def:crs:OGC:1.3:CRS84"}}, "features": [{"type": "Feature", "geometry": {"type": "Point", "coordinates": [-87.64410300000002, 41.752315]}, "properties": {"name": "District 6", "address": "7808 S Halsted St", "hours": "Open Saturday and Sunday", "phone": "312-745-3617"}}, {"type": "Feature", "geometry": {"type": "Point", "coordinates": [-87.708782, 41.778885]}, "properties": {"name": "District 8", "address": "3420 W 63rd St", "hours": "Open Saturday and Sunday", "phone": "312-747-8730"}}, {"type": "Feature", "geometry": {"type": "Point", "coordinates": [-87.567201, 41.708058]}, "properties": {"name": "District 4", "address": "2255 E 103rd St", "hours": "Open Saturday and Sunday", "phone": "312-747-7581"}}, {"type": "Feature", "geometry": {"type": "Point", "coordinates": [-87.581319, 41.751544]}, "properties": {"name": "Southeast", "address": "1767 E. 79th Street", "hours": "M-F: 8:30 a.m. to 4:30 p.m.", "phone": "312-747-0440"}}, {"type": "Feature", "geometry": {"type": "Point", "coordinates": [-87.706127, 41.880438]}, "properties": {"name": "Garfield Center", "address": "10 S. Kedzie Avenue", "hours": "M-F 9am-5pm", "phone": "312-746-5400"}}, {"type": "Feature", "geometry": {"type": "Point", "coordinates": [-87.73427, 41.909853]}, "properties": {"name": "Trina Davila Center", "address": "4312 W. North Avenue", "hours": "M-F 9am-5pm", "phone": "312-744-2014"}}, {"type": "Feature", "geometry": {"type": "Point", "coordinates": [-87.646268, 41.83777]}, "properties": {"name": "District 9", "address": "3120 S Halsted St", "hours": "Open Saturday and Sunday", "phone": "312-747-8227"}}, {"type": "Feature", "geometry": {"type": "Point", "coordinates": [-87.630698, 41.801481]}, "properties": {"name": "District 2", "address": "5101 S Wentworth Ave", "hours": "Open Saturday and Sunday", "phone": "312-747-8366"}}, {"type": "Feature", "geometry": {"type": "Point", "coordinates": [-87.643197, 41.903258]}, "properties": {"name": "District 18", "address": "1160 N Larrabee St", "hours": "Open Saturday and Sunday", "phone": "312-742-5870"}}, {"type": "Feature", "geometry": {"type": "Point", "coordinates": [-87.672269, 41.898817]}, "properties": {"name": "District 13", "address": "937 N Wood St", "hours": "Open Saturday and Sunday", "phone": "312-746-8357"}}, {"type": "Feature", "geometry": {"type": "Point", "coordinates": [-87.703233, 41.78202]}, "properties": {"name": "Southwest", "address": "6117 S. Kedzie Avenue", "hours": "M-F: 8:30 a.m. to 4:30 p.m.", "phone": "312-746-5300"}}, {"type": "Feature", "geometry": {"type": "Point", "coordinates": [-87.704735, 41.873718]}, "properties": {"name": "District 11", "address": "3151 W Harrison St", "hours": "Open Saturday and Sunday", "phone": "312-746-8386"}}, {"type": "Feature", "geometry": {"type": "Point", "coordinates": [-87.603352, 41.692846]}, "properties": {"name": "District 5", "address": "727 E 111th St", "hours": "Open Saturday and Sunday", "phone": "312-747-8210"}}, {"type": "Feature", "geometry": {"type": "Point", "coordinates": [-87.627298, 41.858093]}, "properties": {"name": "District 1", "address": "1718 S State St", "hours": "Open Saturday and Sunday", "phone": "312-745-4290"}}, {"type": "Feature", "geometry": {"type": "Point", "coordinates": [-87.708571, 41.856629000000005]}, "properties": {"name": "District 10", "address": "3315 W Ogden Ave", "hours": "Open Saturday and Sunday", "phone": "312-747-7511"}}, {"type": "Feature", "geometry": {"type": "Point", "coordinates": [-87.605623, 41.766938]}, "properties": {"name": "District 3", "address": "7040 S Cottage Grove Ave", "hours": "Open Saturday and Sunday", "phone": "312-747-8201"}}, {"type": "Feature", "geometry": {"type": "Point", "coordinates": [-87.65203200000002, 41.965504]}, "properties": {"name": "North Area Center", "address": "845 W. Wilson Avenue", "hours": "M-F 9am-5pm", "phone": "312-744-2580"}}, {"type": "Feature", "geometry": {"type": "Point", "coordinates": [-87.67867300000002, 41.870933]}, "properties": {"name": "Central West", "address": "2102 W. Ogden Avenue", "hours": "M-F: 8:30 a.m. to 4:30 p.m.", "phone": "312-744-0784"}}, {"type": "Feature", "geometry": {"type": "Point", "coordinates": [-87.551449, 41.737882]}, "properties": {"name": "South Chicago Center", "address": "8650 S. Commercial Avenue", "hours": "M-F 9am-5pm", "phone": "312-747-0500"}}, {"type": "Feature", "geometry": {"type": "Point", "coordinates": [-87.680029, 41.96870700000001]}, "properties": {"name": "Northeast", "address": "2019 W. Lawrence Avenue", "hours": "M-F: 8:30 a.m. to 4:30 p.m.", "phone": "312-744-6681"}}, {"type": "Feature", "geometry": {"type": "Point", "coordinates": [-87.668795, 41.691397]}, "properties": {"name": "District 22", "address": "1900 W Monterey Ave", "hours": "Open Saturday and Sunday", "phone": "312-745-0710"}}, {"type": "Feature", "geometry": {"type": "Point", "coordinates": [-87.66083300000001, 41.779532]}, "properties": {"name": "District 7", "address": "1438 W 63rd St", "hours": "Open Saturday and Sunday", "phone": "312-747-8223"}}, {"type": "Feature", "geometry": {"type": "Point", "coordinates": [-87.697291, 41.92124]}, "properties": {"name": "District 14", "address": "2150 N California Ave", "hours": "Open Saturday and Sunday", "phone": "312-744-8250"}}, {"type": "Feature", "geometry": {"type": "Point", "coordinates": [-87.72257, 41.938333]}, "properties": {"name": "Northwest", "address": "3160 N. Milwaukee Avenue", "hours": "M-F: 8:30 a.m. to 4:30 p.m.", "phone": "312-747-0189"}}, {"type": "Feature", "geometry": {"type": "Point", "coordinates": [-87.65285500000002, 41.750513]}, "properties": {"name": "Englewood Center", "address": "1140 W. 79th Street", "hours": "M-F 9am-5pm", "phone": "312-747-0200"}}, {"type": "Feature", "geometry": {"type": "Point", "coordinates": [-87.765464, 41.973281]}, "properties": {"name": "District 16", "address": "5151 N Milwaukee Ave", "hours": "Open Saturday and Sunday", "phone": "312-742-4480"}}, {"type": "Feature", "geometry": {"type": "Point", "coordinates": [-87.65711, 41.880073]}, "properties": {"name": "District 12", "address": "100 S Racine Ave", "hours": "Open Saturday and Sunday", "phone": "312-746-8309"}}, {"type": "Feature", "geometry": {"type": "Point", "coordinates": [-87.727948, 41.966053]}, "properties": {"name": "District 17", "address": "4650 N Pulaski Rd", "hours": "Open Saturday and Sunday", "phone": "312-742-4410"}}, {"type": "Feature", "geometry": {"type": "Point", "coordinates": [-87.692715, 41.979563]}, "properties": {"name": "District 20", "address": "5400 N Lincoln Ave", "hours": "Open Saturday and Sunday", "phone": "312-742-8714"}}, {"type": "Feature", "geometry": {"type": "Point", "coordinates": [-87.764648, 41.918542]}, "properties": {"name": "District 25", "address": "5555 W Grand Ave", "hours": "Open Saturday and Sunday", "phone": "312-746-8605"}}, {"type": "Feature", "geometry": {"type": "Point", "coordinates": [-87.624956, 41.883251]}, "properties": {"name": "Renaissance Court", "address": "78 E. Washington Street", "hours": "M-F: 10:00 a.m. to 4:30 p.m.", "phone": "312-744-4550"}}, {"type": "Feature", "geometry": {"type": "Point", "coordinates": [-87.76818700000001, 41.88014]}, "properties": {"name": "District 15", "address": "5701 W Madison St", "hours": "Open Saturday and Sunday", "phone": "312-743-1440"}}, {"type": "Feature", "geometry": {"type": "Point", "coordinates": [-87.606685, 41.816103]}, "properties": {"name": "King Center", "address": "4314 S. Cottage Grove", "hours": "M-F 9am-5pm", "phone": "312-747-2300"}}, {"type": "Feature", "geometry": {"type": "Point", "coordinates": [-87.671231, 41.999736]}, "properties": {"name": "District 24", "address": "6464 N Clark St", "hours": "Open Saturday and Sunday", "phone": "312-744-5907"}}, {"type": "Feature", "geometry": {"type": "Point", "coordinates": [-87.651198, 41.947315]}, "properties": {"name": "District 19", "address": "850 W Addison St", "hours": "Open Saturday and Sunday", "phone": "312-744-8320"}}, {"type": "Feature", "geometry": {"type": "Point", "coordinates": [-87.622178, 41.721692]}, "properties": {"name": "Abbott (Robert)", "address": "49 E 95Th St", "hours": null, "phone": null}}, {"type": "Feature", "geometry": {"type": "Point", "coordinates": [-87.655659, 41.68911]}, "properties": {"name": "Ada (Sawyer Garrett)", "address": "11250 S Ada St", "hours": null, "phone": null}}, {"type": "Feature", "geometry": {"type": "Point", "coordinates": [-87.717001, 41.946523]}, "properties": {"name": "Athletic Field", "address": "3546 W Addison St", "hours": null, "phone": null}}, {"type": "Feature", "geometry": {"type": "Point", "coordinates": [-87.594178, 41.744101]}, "properties": {"name": "Avalon", "address": "1215 E 83Rd St", "hours": null, "phone": null}}, {"type": "Feature", "geometry": {"type": "Point", "coordinates": [-87.657556, 41.804505]}, "properties": {"name": "Back Of The Yards", "address": "4920 S Throop St", "hours": null, "phone": null}}, {"type": "Feature", "geometry": {"type": "Point", "coordinates": [-87.591405, 41.782542]}, "properties": {"name": "Beehive", "address": "6156 S Dorchester Ave", "hours": null, "phone": null}}, {"type": "Feature", "geometry": {"type": "Point", "coordinates": [-87.555452, 41.732921]}, "properties": {"name": "Bessemer (Henry)", "address": "8930 S Muskegon Ave", "hours": null, "phone": null}}, {"type": "Feature", "geometry": {"type": "Point", "coordinates": [-87.68277, 41.708192]}, "properties": {"name": "Beverly", "address": "2460 W 102Nd St", "hours": null, "phone": null}}, {"type": "Feature", "geometry": {"type": "Point", "coordinates": [-87.65489, 41.726781]}, "properties": {"name": "Brainerd", "address": "1246 W 92Nd St", "hours": null, "phone": null}}, {"type": "Feature", "geometry": {"type": "Point", "coordinates": [-87.660966, 41.962861000000004]}, "properties": {"name": "Broncho Billy", "address": "4437 N Magnolia Ave", "hours": null, "phone": null}}, {"type": "Feature", "geometry": {"type": "Point", "coordinates": [-87.597269, 41.723933]}, "properties": {"name": "Burnside (Ambrose)", "address": "9400 S Greenwood Ave", "hours": null, "phone": null}}, {"type": "Feature", "geometry": {"type": "Point", "coordinates": [-87.69813400000001, 41.950942]}, "properties": {"name": "California", "address": "3843 N California Ave", "hours": null, "phone": null}}, {"type": "Feature", "geometry": {"type": "Point", "coordinates": [-87.727478, 41.814114]}, "properties": {"name": "Catalpa", "address": "4330 S Kedvale Ave", "hours": null, "phone": null}}, {"type": "Feature", "geometry": {"type": "Point", "coordinates": [-87.657873, 41.978396]}, "properties": {"name": "Cedar", "address": "5315 N Winthrop Ave", "hours": null, "phone": null}}, {"type": "Feature", "geometry": {"type": "Point", "coordinates": [-87.76173000000001, 41.943124]}, "properties": {"name": "Chopin (Frederic)", "address": "3420 N Long Ave", "hours": null, "phone": null}}, {"type": "Feature", "geometry": {"type": "Point", "coordinates": [-87.673798, 41.896879]}, "properties": {"name": "Commercial Club Pgd. Of Chicago", "address": "1845 W Rice St", "hours": null, "phone": null}}, {"type": "Feature", "geometry": {"type": "Point", "coordinates": [-87.670689, 41.803113]}, "properties": {"name": "Cornell (Paul) Square", "address": "1809 W 50Th St", "hours": null, "phone": null}}, {"type": "Feature", "geometry": {"type": "Point", "coordinates": [-87.75874300000001, 41.9282]}, "properties": {"name": "Cragin", "address": "2611 N Lockwood Ave", "hours": null, "phone": null}}, {"type": "Feature", "geometry": {"type": "Point", "coordinates": [-87.6663, 41.813094]}, "properties": {"name": "Davis (Dr. Nathan) Square", "address": "4430 S Marshfield Ave", "hours": null, "phone": null}}, {"type": "Feature", "geometry": {"type": "Point", "coordinates": [-87.673082, 41.747193]}, "properties": {"name": "Dawes (Charles G.)", "address": "8052 S Damen Av", "hours": null, "phone": null}}, {"type": "Feature", "geometry": {"type": "Point", "coordinates": [-87.752289, 41.95540700000001]}, "properties": {"name": "Dickinson (Arthur)", "address": "4117 N Lavergne Ave", "hours": null, "phone": null}}, {"type": "Feature", "geometry": {"type": "Point", "coordinates": [-87.701891, 41.862686]}, "properties": {"name": "Douglas (Stephen)", "address": "1401 S Sacramento", "hours": null, "phone": null}}, {"type": "Feature", "geometry": {"type": "Point", "coordinates": [-87.781984, 41.965947]}, "properties": {"name": "Dunham (Robert)", "address": "4640 N Melvina Ave", "hours": null, "phone": null}}, {"type": "Feature", "geometry": {"type": "Point", "coordinates": [-87.730091, 41.739289]}, "properties": {"name": "Durkin (Martin)", "address": "8445 S Kolin Ave", "hours": null, "phone": null}}, {"type": "Feature", "geometry": {"type": "Point", "coordinates": [-87.610379, 41.830713]}, "properties": {"name": "Ellis (Samuel)", "address": "3520 S Cottage Grove", "hours": null, "phone": null}}, {"type": "Feature", "geometry": {"type": "Point", "coordinates": [-87.679226, 41.939582]}, "properties": {"name": "Fellger (Charles)", "address": "2012 W Belmont Ave", "hours": null, "phone": null}}, {"type": "Feature", "geometry": {"type": "Point", "coordinates": [-87.637884, 41.704167]}, "properties": {"name": "Fernwood", "address": "10436 S Wallace St", "hours": null, "phone": null}}, {"type": "Feature", "geometry": {"type": "Point", "coordinates": [-87.722074, 41.973843]}, "properties": {"name": "Field (Eugene)", "address": "5100 N Ridgeway Ave", "hours": null, "phone": null}}, {"type": "Feature", "geometry": {"type": "Point", "coordinates": [-87.691807, 41.91481100000001]}, "properties": {"name": "Flower (Lucy)", "address": "2554 W Moffat St", "hours": null, "phone": null}}, {"type": "Feature", "geometry": {"type": "Point", "coordinates": [-87.65882, 41.864712]}, "properties": {"name": "Fosco (Peter)", "address": "1313 S Throop St", "hours": null, "phone": null}}, {"type": "Feature", "geometry": {"type": "Point", "coordinates": [-87.634581, 41.812507]}, "properties": {"name": "Fuller (Melville)", "address": "331 W 45Th St", "hours": null, "phone": null}}, {"type": "Feature", "geometry": {"type": "Point", "coordinates": [-87.769515, 41.912565]}, "properties": {"name": "Galewood", "address": "5729 W Bloomingdale Ave", "hours": null, "phone": null}}, {"type": "Feature", "geometry": {"type": "Point", "coordinates": [-87.61070400000001, 41.658077]}, "properties": {"name": "Golden Gate", "address": "13000 S Eberhart Ave", "hours": null, "phone": null}}, {"type": "Feature", "geometry": {"type": "Point", "coordinates": [-87.60167, 41.755786]}, "properties": {"name": "Grand Crossing", "address": "7655 S Ingleside Ave", "hours": null, "phone": null}}, {"type": "Feature", "geometry": {"type": "Point", "coordinates": [-87.734207, 41.91160500000001]}, "properties": {"name": "Greenebaum (Henry)", "address": "4300 W Wabansia Ave", "hours": null, "phone": null}}, {"type": "Feature", "geometry": {"type": "Point", "coordinates": [-87.694974, 41.924954]}, "properties": {"name": "Haas (Joseph)", "address": "2402 N Washtenaw Ave", "hours": null, "phone": null}}, {"type": "Feature", "geometry": {"type": "Point", "coordinates": [-87.637669, 41.763495]}, "properties": {"name": "Hamilton (Alexander)", "address": "513 W 72Nd St", "hours": null, "phone": null}}, {"type": "Feature", "geometry": {"type": "Point", "coordinates": [-87.696483, 41.738657]}, "properties": {"name": "Hayes (Francis)", "address": "2936 W 85Th St", "hours": null, "phone": null}}, {"type": "Feature", "geometry": {"type": "Point", "coordinates": [-87.66923700000001, 41.787188]}, "properties": {"name": "Hermitage", "address": "5839 S Wood St", "hours": null, "phone": null}}, {"type": "Feature", "geometry": {"type": "Point", "coordinates": [-87.827703, 41.943965]}, "properties": {"name": "Hiawatha", "address": "8029 W Forest Preserve Ave", "hours": null, "phone": null}}, {"type": "Feature", "geometry": {"type": "Point", "coordinates": [-87.603005, 41.820657]}, "properties": {"name": "Holly", "address": "4052 S Ellis Ave", "hours": null, "phone": null}}, {"type": "Feature", "geometry": {"type": "Point", "coordinates": [-87.701402, 41.906409000000004]}, "properties": {"name": "Humboldt (Alexander Von)", "address": "1400 N Humboldt Dr", "hours": null, "phone": null}}, {"type": "Feature", "geometry": {"type": "Point", "coordinates": [-87.692536, 42.008606]}, "properties": {"name": "Indian Boundary", "address": "2500 W Lunt Ave", "hours": null, "phone": null}}, {"type": "Feature", "geometry": {"type": "Point", "coordinates": [-87.778266, 41.992755]}, "properties": {"name": "Indian Road", "address": "6010 W Matson Ave", "hours": null, "phone": null}}, {"type": "Feature", "geometry": {"type": "Point", "coordinates": [-87.76238300000001, 41.968522]}, "properties": {"name": "Jefferson (Thomas) Meml.", "address": "4822 N Long Ave", "hours": null, "phone": null}}, {"type": "Feature", "geometry": {"type": "Point", "coordinates": [-87.66645900000002, 41.948069]}, "properties": {"name": "Juniper", "address": "3656 N Greenview Ave", "hours": null, "phone": null}}, {"type": "Feature", "geometry": {"type": "Point", "coordinates": [-87.73032300000001, 41.906237000000004]}, "properties": {"name": "Kedvale", "address": "4140 W Hirsch St", "hours": null, "phone": null}}, {"type": "Feature", "geometry": {"type": "Point", "coordinates": [-87.738278, 41.928651]}, "properties": {"name": "Kelvyn (William)", "address": "4438 W Wrightwood Ave", "hours": null, "phone": null}}, {"type": "Feature", "geometry": {"type": "Point", "coordinates": [-87.681098, 41.687783]}, "properties": {"name": "Kennedy (Dennis)", "address": "11320 S Western Ave", "hours": null, "phone": null}}, {"type": "Feature", "geometry": {"type": "Point", "coordinates": [-87.594208, 41.804202]}, "properties": {"name": "Kenwood Comm.", "address": "1330 E 50Th St", "hours": null, "phone": null}}, {"type": "Feature", "geometry": {"type": "Point", "coordinates": [-87.653843, 41.754139]}, "properties": {"name": "King (Martin Luther, Jr.)", "address": "1200 W 77Th St", "hours": null, "phone": null}}, {"type": "Feature", "geometry": {"type": "Point", "coordinates": [-87.536487, 41.702884]}, "properties": {"name": "Krause (Francis Vernon)", "address": "10558 S Avenue L", "hours": null, "phone": null}}, {"type": "Feature", "geometry": {"type": "Point", "coordinates": [-87.699996, 41.840355]}, "properties": {"name": "La Villita", "address": "2800 S Sacramento", "hours": null, "phone": null}}, {"type": "Feature", "geometry": {"type": "Point", "coordinates": [-87.751779, 41.775999]}, "properties": {"name": "Lawler (Michael)", "address": "5210 W 64Th St", "hours": null, "phone": null}}, {"type": "Feature", "geometry": {"type": "Point", "coordinates": [-87.71121, 41.847543]}, "properties": {"name": "Limas (Juliann Hope)", "address": "2410 S Trumbull Ave", "hours": null, "phone": null}}, {"type": "Feature", "geometry": {"type": "Point", "coordinates": [-87.54928, 41.657354]}, "properties": {"name": "Mann (James)", "address": "2949 E 131St St", "hours": null, "phone": null}}, {"type": "Feature", "geometry": {"type": "Point", "coordinates": [-87.703048, 41.771379]}, "properties": {"name": "Marquette (Jacques)", "address": "6734 S Kedzie Ave", "hours": null, "phone": null}}, {"type": "Feature", "geometry": {"type": "Point", "coordinates": [-87.702998, 41.989201]}, "properties": {"name": "Mather (Stephen Tyng)", "address": "5941 N Richmond St", "hours": null, "phone": null}}, {"type": "Feature", "geometry": {"type": "Point", "coordinates": [-87.7422, 41.96259700000001]}, "properties": {"name": "Mayfair", "address": "4550 W Sunnyside Ave", "hours": null, "phone": null}}, {"type": "Feature", "geometry": {"type": "Point", "coordinates": [-87.702276, 41.698418]}, "properties": {"name": "Mckiernan (David)", "address": "10714 S Sawyer Ave", "hours": null, "phone": null}}, {"type": "Feature", "geometry": {"type": "Point", "coordinates": [-87.678006, 41.796995]}, "properties": {"name": "Micek (Frank)", "address": "5311 S Hamilton Ave", "hours": null, "phone": null}}, {"type": "Feature", "geometry": {"type": "Point", "coordinates": [-87.75276500000001, 41.878517]}, "properties": {"name": "Moore (Maurice)", "address": "5085 W Adams St", "hours": null, "phone": null}}, {"type": "Feature", "geometry": {"type": "Point", "coordinates": [-87.713538, 41.691373]}, "properties": {"name": "Mount Greenwood", "address": "3721 W 111Th St", "hours": null, "phone": null}}, {"type": "Feature", "geometry": {"type": "Point", "coordinates": [-87.666572, 41.836638]}, "properties": {"name": "Mulberry", "address": "3150 S Robinson Ct", "hours": null, "phone": null}}, {"type": "Feature", "geometry": {"type": "Point", "coordinates": [-87.723793, 41.861044]}, "properties": {"name": "Ninebark", "address": "1447-1453 S Harding Ave", "hours": null, "phone": null}}, {"type": "Feature", "geometry": {"type": "Point", "coordinates": [-87.744016, 41.891413]}, "properties": {"name": "Ohio", "address": "4712 W Ohio St", "hours": null, "phone": null}}, {"type": "Feature", "geometry": {"type": "Point", "coordinates": [-87.814434, 41.977688]}, "properties": {"name": "Oriole", "address": "5430 N Olcott Ave", "hours": null, "phone": null}}, {"type": "Feature", "geometry": {"type": "Point", "coordinates": [-87.573238, 41.734405]}, "properties": {"name": "Owens (Jesse)", "address": "8800 S Clyde", "hours": null, "phone": null}}, {"type": "Feature", "geometry": {"type": "Point", "coordinates": [-87.616431, 41.692674]}, "properties": {"name": "Palmer (Potter)", "address": "201 E 111Th St", "hours": null, "phone": null}}, {"type": "Feature", "geometry": {"type": "Point", "coordinates": [-87.705955, 41.874916]}, "properties": {"name": "Park No. 422", "address": "3200 W Congress Pkwy", "hours": null, "phone": null}}, {"type": "Feature", "geometry": {"type": "Point", "coordinates": [-87.712915, 41.863872]}, "properties": {"name": "Park No. 534", "address": "1301 S St Louis Ave", "hours": null, "phone": null}}, {"type": "Feature", "geometry": {"type": "Point", "coordinates": [-87.61686, 41.885539]}, "properties": {"name": "Park No. 546", "address": "450 E Benton Place", "hours": null, "phone": null}}, {"type": "Feature", "geometry": {"type": "Point", "coordinates": [-87.69106, 41.877524]}, "properties": {"name": "Park No. 574", "address": "2554 W Jackson Blvd", "hours": null, "phone": null}}, {"type": "Feature", "geometry": {"type": "Point", "coordinates": [-87.744463, 41.938881]}, "properties": {"name": "Parsons (Lucy)", "address": "4701 W Belmont Ave", "hours": null, "phone": null}}, {"type": "Feature", "geometry": {"type": "Point", "coordinates": [-87.61829, 41.815193]}, "properties": {"name": "Pendleton (Hadiya)", "address": "4347 S Calumet Ave", "hours": null, "phone": null}}, {"type": "Feature", "geometry": null, "properties": {"name": "Periwinkle", "address": "30 W 66Th St", "hours": null, "phone": null}}, {"type": "Feature", "geometry": {"type": "Point", "coordinates": [-87.677848, 42.014829]}, "properties": {"name": "Pottawattomie", "address": "7340 N Rogers Ave", "hours": null, "phone": null}}, {"type": "Feature", "geometry": {"type": "Point", "coordinates": [-87.701292, 41.973861]}, "properties": {"name": "River", "address": "5100 N Francisco Ave", "hours": null, "phone": null}}, {"type": "Feature", "geometry": null, "properties": {"name": "Rosenblum (J. Leslie)", "address": "7547 S Euclid Ave", "hours": null, "phone": null}}, {"type": "Feature", "geometry": {"type": "Point", "coordinates": [-87.53645, 41.685167]}, "properties": {"name": "Rowan (William)", "address": "11546 S Avenue L", "hours": null, "phone": null}}, {"type": "Feature", "geometry": {"type": "Point", "coordinates": [-87.79846800000001, 41.921134]}, "properties": {"name": "Rutherford Sayre", "address": "6871 W Belden Ave", "hours": null, "phone": null}}, {"type": "Feature", "geometry": {"type": "Point", "coordinates": [-87.713632, 41.887565]}, "properties": {"name": "Saint Louis", "address": "347 N St Louis Ave", "hours": null, "phone": null}}, {"type": "Feature", "geometry": {"type": "Point", "coordinates": [-87.669743, 41.99890500000001]}, "properties": {"name": "Schreiber", "address": "1552 W Schreiber Ave", "hours": null, "phone": null}}, {"type": "Feature", "geometry": {"type": "Point", "coordinates": [-87.710771, 41.790475]}, "properties": {"name": "Senka (Edward \"Duke\")", "address": "5656 S St Louis Ave", "hours": null, "phone": null}}, {"type": "Feature", "geometry": {"type": "Point", "coordinates": [-87.668464, 41.988713]}, "properties": {"name": "Senn (Nicholas)", "address": "5887 N Ridge Ave", "hours": null, "phone": null}}, {"type": "Feature", "geometry": {"type": "Point", "coordinates": [-87.800259, 41.945407]}, "properties": {"name": "Shabbona", "address": "6935 W Addison", "hours": null, "phone": null}}, {"type": "Feature", "geometry": {"type": "Point", "coordinates": [-87.657436, 41.799637]}, "properties": {"name": "Sherman (John)", "address": "1301 W 52Nd St", "hours": null, "phone": null}}, {"type": "Feature", "geometry": {"type": "Point", "coordinates": [-87.634038, 41.790468]}, "properties": {"name": "Sherwood (Jesse)", "address": "5705 S Shields Ave", "hours": null, "phone": null}}, {"type": "Feature", "geometry": {"type": "Point", "coordinates": [-87.65943900000002, 41.880283000000006]}, "properties": {"name": "Skinner (Mark)", "address": "1331 W  Monroe St", "hours": null, "phone": null}}, {"type": "Feature", "geometry": {"type": "Point", "coordinates": [-87.69010900000002, 41.891721]}, "properties": {"name": "Smith (Joseph Higgins)", "address": "2526 W Grand Ave", "hours": null, "phone": null}}, {"type": "Feature", "geometry": {"type": "Point", "coordinates": [-87.643867, 41.905037]}, "properties": {"name": "Stanton (Edwin)", "address": "618 W Scott St", "hours": null, "phone": null}}, {"type": "Feature", "geometry": {"type": "Point", "coordinates": [-87.797896, 41.798699]}, "properties": {"name": "Stars & Stripes", "address": "5100 S Nordica Ave", "hours": null, "phone": null}}, {"type": "Feature", "geometry": {"type": "Point", "coordinates": [-87.732391, 41.794989]}, "properties": {"name": "Strohacker (Howard)", "address": "4347 W 54Th St", "hours": null, "phone": null}}, {"type": "Feature", "geometry": {"type": "Point", "coordinates": [-87.658859, 41.857135]}, "properties": {"name": "Throop (Amos Gager)", "address": "1811 S Throop St", "hours": null, "phone": null}}, {"type": "Feature", "geometry": {"type": "Point", "coordinates": [-87.735629, 41.885906]}, "properties": {"name": "Tilton (George)", "address": "305 N Kostner", "hours": null, "phone": null}}, {"type": "Feature", "geometry": {"type": "Point", "coordinates": [-87.564479, 41.704587]}, "properties": {"name": "Trumbull (Lyman)", "address": "2400 E 105Th St", "hours": null, "phone": null}}, {"type": "Feature", "geometry": {"type": "Point", "coordinates": [-87.60948, 41.730111]}, "properties": {"name": "Tuley (Murray)", "address": "501 E 90Th Pl", "hours": null, "phone": null}}, {"type": "Feature", "geometry": {"type": "Point", "coordinates": [-87.55583, 41.7173]}, "properties": {"name": "Veterans' Memorial", "address": "2820 E 98Th St", "hours": null, "phone": null}}, {"type": "Feature", "geometry": {"type": "Point", "coordinates": [-87.728248, 41.869059]}, "properties": {"name": "Violet", "address": "4120 W Taylor St", "hours": null, "phone": null}}, {"type": "Feature", "geometry": {"type": "Point", "coordinates": [-87.748205, 41.802024]}, "properties": {"name": "Vittum (Harriet Elizabeth)", "address": "5010 W 50Th St", "hours": null, "phone": null}}, {"type": "Feature", "geometry": {"type": "Point", "coordinates": [-87.640929, 41.892852]}, "properties": {"name": "Ward (A. Montgomery)", "address": "630 N Kingsbury Ave", "hours": null, "phone": null}}, {"type": "Feature", "geometry": {"type": "Point", "coordinates": [-87.65256000000001, 41.93539200000001]}, "properties": {"name": "Weisman (Albert)", "address": "901 W Oakdale Ave", "hours": null, "phone": null}}, {"type": "Feature", "geometry": {"type": "Point", "coordinates": [-87.686423, 41.963199]}, "properties": {"name": "Welles (Gideon)", "address": "2333 W Sunnyside Ave", "hours": null, "phone": null}}, {"type": "Feature", "geometry": {"type": "Point", "coordinates": [-87.779233, 41.790224]}, "properties": {"name": "Wentworth (John)", "address": "5625 S Mobile Ave", "hours": null, "phone": null}}, {"type": "Feature", "geometry": {"type": "Point", "coordinates": [-87.631676, 41.744498]}, "properties": {"name": "West Chatham", "address": "8223 S Princeton Ave", "hours": null, "phone": null}}, {"type": "Feature", "geometry": {"type": "Point", "coordinates": [-87.728278, 41.774943]}, "properties": {"name": "West Lawn", "address": "4233 W 65Th St", "hours": null, "phone": null}}, {"type": "Feature", "geometry": {"type": "Point", "coordinates": [-87.6324, 41.670629]}, "properties": {"name": "West Pullman", "address": "401 W 123Rd St", "hours": null, "phone": null}}, {"type": "Feature", "geometry": {"type": "Point", "coordinates": [-87.650157, 41.672243]}, "properties": {"name": "White (Edward)", "address": "1120 W 122Nd St", "hours": null, "phone": null}}, {"type": "Feature", "geometry": {"type": "Point", "coordinates": [-87.62690000000002, 41.842912]}, "properties": {"name": "Williams (Daniel Hale)", "address": "2820 S State St", "hours": null, "phone": null}}, {"type": "Feature", "geometry": {"type": "Point", "coordinates": [-87.62690000000002, 41.842912]}, "properties": {"name": "Williams (Daniel Hale)", "address": "2820 S State St", "hours": null, "phone": null}}, {"type": "Feature", "geometry": {"type": "Point", "coordinates": [-87.654498, 41.831557]}, "properties": {"name": "Wilson (John)", "address": "1122 W 34Th Pl", "hours": null, "phone": null}}, {"type": "Feature", "geometry": {"type": "Point", "coordinates": [-87.543168, 41.699136]}, "properties": {"name": "Wolfe (Richard)", "address": "3325 E 108Th St", "hours": null, "phone": null}}, {"type": "Feature", "geometry": {"type": "Point", "coordinates": [-87.618295, 41.694366]}, "properties": {"name": "Pullman", "address": "11001 S. Indiana Avenue", "hours": "M, W: 10AM-5PM;  TU, TH: 12PM-7PM; F, SA: 10AM-5PM; SU: Closed", "phone": "(312) 747-2033"}}, {"type": "Feature", "geometry": {"type": "Point", "coordinates": [-87.626436, 41.828152]}, "properties": {"name": "Chicago Bee", "address": "3647 S. State Street", "hours": "M, W: 12PM-7PM; TU, TH: 10AM-5PM; F, SA: 10AM-5PM; SU: Closed", "phone": "(312) 747-6872"}}, {"type": "Feature", "geometry": {"type": "Point", "coordinates": [-87.533513, 41.70272]}, "properties": {"name": "Vodak-East Side", "address": "3710 E. 106th Street", "hours": "M, W: 12PM-7PM; TU, TH: 10AM-5PM; F, SA: 10AM-5PM; SU: Closed", "phone": "(312) 747-5500"}}, {"type": "Feature", "geometry": {"type": "Point", "coordinates": [-87.703483, 41.924806]}, "properties": {"name": "Logan Square", "address": "3030 W. Fullerton Avenue", "hours": "M, W: 10AM-5PM;  TU, TH: 12PM-7PM; F, SA: 10AM-5PM; SU: Closed", "phone": "(312) 744-5295"}}, {"type": "Feature", "geometry": {"type": "Point", "coordinates": [-87.661298, 41.857604]}, "properties": {"name": "Lozano", "address": "1805 S. Loomis Street", "hours": "M, W: 10AM-5PM;  TU, TH: 12PM-7PM; F, SA: 10AM-5PM; SU: Closed", "phone": "(312) 746-4329"}}, {"type": "Feature", "geometry": {"type": "Point", "coordinates": [-87.590213, 41.80762]}, "properties": {"name": "Blackstone", "address": "4904 S. Lake Park Avenue", "hours": "M, W: 12PM-7PM; TU, TH: 10AM-5PM; F, SA: 10AM-5PM; SU: Closed", "phone": "(312) 747-0511"}}, {"type": "Feature", "geometry": {"type": "Point", "coordinates": [-87.646055, 41.940054]}, "properties": {"name": "Merlo", "address": "644 W. Belmont Avenue", "hours": "M, W: 12PM-7PM; TU, TH: 10AM-5PM; F, SA: 10AM-5PM; SU: Closed", "phone": "(312) 744-1139"}}, {"type": "Feature", "geometry": {"type": "Point", "coordinates": [-87.65393, 41.757373]}, "properties": {"name": "Thurgood Marshall", "address": "7506 S. Racine Avenue", "hours": "M, W: 12PM-7PM; TU, TH: 10AM-5PM; F, SA: 10AM-5PM; SU: Closed", "phone": "(312) 747-5927"}}, {"type": "Feature", "geometry": {"type": "Point", "coordinates": [-87.780098, 41.792854]}, "properties": {"name": "Garfield Ridge", "address": "6348 S. Archer Avenue", "hours": "M, W: 10AM-5PM;  TU, TH: 12PM-7PM; F, SA: 10AM-5PM; SU: Closed", "phone": "(312) 747-6094"}}, {"type": "Feature", "geometry": {"type": "Point", "coordinates": [-87.726723, 41.801206]}, "properties": {"name": "Archer Heights", "address": "5055 S. Archer Avenue", "hours": "M, W: 12PM-7PM; TU, TH: 10AM-5PM; F, SA: 10AM-5PM; SU: Closed", "phone": "(312) 747-9241"}}, {"type": "Feature", "geometry": {"type": "Point", "coordinates": [-87.66821, 41.779364]}, "properties": {"name": "West Englewood", "address": "1745 W. 63rd Street", "hours": "M, W: 12PM-7PM; TU, TH: 10AM-5PM; F, SA: 10AM-5PM; SU: Closed", "phone": "(312) 747-3481"}}, {"type": "Feature", "geometry": {"type": "Point", "coordinates": [-87.549849, 41.730371]}, "properties": {"name": "South Chicago", "address": "9055 S. Houston Avenue", "hours": "M, W: 12PM-7PM; TU, TH: 10AM-5PM; F, SA: 10AM-5PM; SU: Closed", "phone": "(312) 747-8065"}}, {"type": "Feature", "geometry": {"type": "Point", "coordinates": [-87.585869, 41.746322]}, "properties": {"name": "Avalon", "address": "8148 S. Stony Island Avenue", "hours": "M, W: 12PM-7PM; TU, TH: 10AM-5PM; F, SA: 10AM-5PM; SU: Closed", "phone": "(312) 747-5234"}}, {"type": "Feature", "geometry": {"type": "Point", "coordinates": [-87.67344, 42.006673]}, "properties": {"name": "Rogers Park", "address": "6907 N. Clark Street", "hours": "M, W: 12PM-7PM; TU, TH: 10AM-5PM; F, SA: 10AM-5PM; SU: Closed", "phone": "(312) 744-0156"}}, {"type": "Feature", "geometry": {"type": "Point", "coordinates": [-87.813329, 41.978015]}, "properties": {"name": "Oriole Park", "address": "7454 W. Balmoral Avenue", "hours": "M, W: 12PM-7PM; TU, TH: 10AM-5PM; F, SA: 10AM-5PM; SU: Closed", "phone": "(312) 744-1965"}}, {"type": "Feature", "geometry": {"type": "Point", "coordinates": [-87.74730500000001, 41.895019]}, "properties": {"name": "West Chicago Avenue", "address": "4856 W. Chicago Avenue", "hours": "M, W: 10AM-5PM;  TU, TH: 12PM-7PM; F, SA: 10AM-5PM; SU: Closed", "phone": "(312) 743-0260"}}, {"type": "Feature", "geometry": {"type": "Point", "coordinates": [-87.684637, 41.962677]}, "properties": {"name": "Sulzer Regional", "address": "4455 N. Lincoln Avenue", "hours": "M-TH: 9AM-8PM; F, SA: 9AM-5PM; SU: 1PM-5PM", "phone": "(312) 744-7616"}}, {"type": "Feature", "geometry": {"type": "Point", "coordinates": [-87.548914, 41.65915300000001]}, "properties": {"name": "Hegewisch", "address": "3048 E. 130th Street", "hours": "M, W: 10AM-5PM;  TU, TH: 12PM-7PM; F, SA: 10AM-5PM; SU: Closed", "phone": "(312) 747-0046"}}, {"type": "Feature", "geometry": {"type": "Point", "coordinates": [-87.563672, 41.762654]}, "properties": {"name": "South Shore", "address": "2505 E. 73rd Street", "hours": "M, W: 10AM-5PM;  TU, TH: 12PM-7PM; F, SA: 10AM-5PM; SU: Closed", "phone": "(312) 747-5281"}}, {"type": "Feature", "geometry": {"type": "Point", "coordinates": [-87.631794, 41.854267]}, "properties": {"name": "Chinatown", "address": "2100 S. Wentworth Avenue", "hours": "M, W: 12PM-7PM; TU, TH: 10AM-5PM; F, SA: 10AM-5PM; SU: Closed", "phone": "(312) 747-8013"}}, {"type": "Feature", "geometry": {"type": "Point", "coordinates": [-87.660344, 41.990916]}, "properties": {"name": "Edgewater", "address": "6000 N. Broadway", "hours": "M, W: 10AM-5PM;  TU, TH: 12PM-7PM; F, SA: 10AM-5PM; SU: Closed", "phone": "(312) 742-1945"}}, {"type": "Feature", "geometry": {"type": "Point", "coordinates": [-87.700878, 41.692925]}, "properties": {"name": "Mount Greenwood", "address": "11010 S. Kedzie Avenue", "hours": "M, W: 10AM-5PM;  TU, TH: 12PM-7PM; F, SA: 10AM-5PM; SU: Closed", "phone": "(312) 747-2805"}}, {"type": "Feature", "geometry": {"type": "Point", "coordinates": [-87.660263, 41.869359]}, "properties": {"name": "Little Italy", "address": "1336 W. Taylor Street", "hours": "M, W: 12PM-7PM; TU, TH: 10AM-5PM; F, SA: 10AM-5PM; SU: 1PM-5PM", "phone": "(312) 746-5656"}}, {"type": "Feature", "geometry": {"type": "Point", "coordinates": [-87.654217, 41.95846]}, "properties": {"name": "Uptown", "address": "929 W. Buena Avenue", "hours": "M, W: 10AM-5PM;  TU, TH: 12PM-7PM; F, SA: 10AM-5PM; SU: Closed", "phone": "(312) 744-8400"}}, {"type": "Feature", "geometry": {"type": "Point", "coordinates": [-87.724291, 41.749388]}, "properties": {"name": "Scottsdale", "address": "4101 W. 79th Street", "hours": "M, W: 10AM-5PM;  TU, TH: 12PM-7PM; F, SA: 10AM-5PM; SU: Closed", "phone": "(312) 747-0193"}}, {"type": "Feature", "geometry": {"type": "Point", "coordinates": [-87.779388, 41.953025]}, "properties": {"name": "Austin-Irving", "address": "6100 W. Irving Park Road", "hours": "M, W: 12PM-7PM; TU, TH: 10AM-5PM; F, SA: 10AM-5PM; SU: Closed", "phone": "(312) 744-6222"}}, {"type": "Feature", "geometry": {"type": "Point", "coordinates": [-87.680298, 41.912224]}, "properties": {"name": "Bucktown-Wicker Park", "address": "1701 N. Milwaukee Avenue", "hours": "M, W: 12PM-7PM; TU, TH: 10AM-5PM; F, SA: 10AM-5PM; SU: Closed", "phone": "(312) 744-6022"}}, {"type": "Feature", "geometry": {"type": "Point", "coordinates": [-87.706545, 41.89433]}, "properties": {"name": "Daley, Richard M.-W Humboldt", "address": "733 N. Kedzie Avenue", "hours": "M, W: 10AM-5PM;  TU, TH: 12PM-7PM; F, SA: 10AM-5PM; SU: 1PM-5PM", "phone": "(312) 743-0555"}}, {"type": "Feature", "geometry": {"type": "Point", "coordinates": [-87.738158, 41.96815]}, "properties": {"name": "Mayfair", "address": "4400 W. Lawrence Avenue", "hours": "M, W: 12PM-7PM; TU, TH: 10AM-5PM; F, SA: 10AM-5PM; SU: Closed", "phone": "(312) 744-1254"}}, {"type": "Feature", "geometry": {"type": "Point", "coordinates": [-87.761964, 41.967648]}, "properties": {"name": "Jefferson Park", "address": "5363 W. Lawrence Avenue", "hours": "M, W: 10AM-5PM;  TU, TH: 12PM-7PM; F, SA: 10AM-5PM; SU: Closed", "phone": "(312) 744-1998"}}, {"type": "Feature", "geometry": {"type": "Point", "coordinates": [-87.64332700000001, 41.677819]}, "properties": {"name": "West Pullman", "address": "830 W. 119th Street", "hours": "M, W: 12PM-7PM; TU, TH: 10AM-5PM; F, SA: 10AM-5PM; SU: 1PM-5PM", "phone": "(312) 747-1425"}}, {"type": "Feature", "geometry": {"type": "Point", "coordinates": [-87.785858, 41.936833]}, "properties": {"name": "West Belmont", "address": "3104 N. Narragansett Avenue", "hours": "M, W: 10AM-5PM;  TU, TH: 12PM-7PM; F, SA: 10AM-5PM; SU: Closed", "phone": "(312) 746-5142"}}, {"type": "Feature", "geometry": {"type": "Point", "coordinates": [-87.713595, 41.975693]}, "properties": {"name": "Albany Park", "address": "3401 W. Foster Ave.", "hours": "M, W: 10AM-5PM;  TU, TH: 12PM-7PM; F, SA: 10AM-5PM; SU: Closed", "phone": "(773) 539-5450"}}, {"type": "Feature", "geometry": {"type": "Point", "coordinates": [-87.67345, 41.830421]}, "properties": {"name": "McKinley Park", "address": "1915 W. 35th Street", "hours": "M, W: 12PM-7PM; TU, TH: 10AM-5PM; F, SA: 10AM-5PM; SU: Closed", "phone": "(312) 747-6082"}}, {"type": "Feature", "geometry": {"type": "Point", "coordinates": [-87.798265, 41.991862]}, "properties": {"name": "Roden", "address": "6083 N. Northwest Highway", "hours": "M, W: 10AM-5PM;  TU, TH: 12PM-7PM; F, SA: 10AM-5PM; SU: Closed", "phone": "(312) 744-1478"}}, {"type": "Feature", "geometry": {"type": "Point", "coordinates": [-87.65487, 41.794843]}, "properties": {"name": "Sherman Park", "address": "5440 S. Racine Avenue", "hours": "M, W: 12PM-7PM; TU, TH: 10AM-5PM; F, SA: 10AM-5PM; SU: Closed", "phone": "(312) 747-0477"}}, {"type": "Feature", "geometry": {"type": "Point", "coordinates": [-87.668233, 41.89606]}, "properties": {"name": "West Town", "address": "1625 W. Chicago Avenue", "hours": "M, W: 10AM-5PM;  TU, TH: 12PM-7PM; F, SA: 10AM-5PM; SU: Closed", "phone": "(312) 743-0450"}}, {"type": "Feature", "geometry": {"type": "Point", "coordinates": [-87.60684900000001, 41.780405]}, "properties": {"name": "Coleman", "address": "731 E. 63rd Street", "hours": "M, W: 12PM-7PM; TU, TH: 10AM-5PM; F, SA: 10AM-5PM; SU: Closed", "phone": "(312) 747-7760"}}, {"type": "Feature", "geometry": {"type": "Point", "coordinates": [-87.658126, 41.925316]}, "properties": {"name": "Lincoln Park", "address": "1150 W. Fullerton Avenue", "hours": "M, W: 10AM-5PM;  TU, TH: 12PM-7PM; F, SA: 10AM-5PM; SU: Closed", "phone": "(312) 744-1926"}}, {"type": "Feature", "geometry": {"type": "Point", "coordinates": [-87.705179, 41.849599]}, "properties": {"name": "Little Village", "address": "2311 S. Kedzie Avenue", "hours": "M, W: 10AM-5PM;  TU, TH: 12PM-7PM; F, SA: 10AM-5PM; SU: Closed", "phone": "(312) 745-1862"}}, {"type": "Feature", "geometry": {"type": "Point", "coordinates": [-87.724477, 41.842073]}, "properties": {"name": "Toman", "address": "2708 S. Pulaski Road", "hours": "M, W: 12PM-7PM; TU, TH: 10AM-5PM; F, SA: 10AM-5PM; SU: 1PM-5PM", "phone": "(312) 745-1660"}}, {"type": "Feature", "geometry": {"type": "Point", "coordinates": [-87.696439, 41.983843]}, "properties": {"name": "Budlong Woods", "address": "5630 N. Lincoln Avenue", "hours": "M, W: 12PM-7PM; TU, TH: 10AM-5PM; F, SA: 10AM-5PM; SU: Closed", "phone": "(312) 742-9590"}}, {"type": "Feature", "geometry": {"type": "Point", "coordinates": [-87.636644, 41.903838]}, "properties": {"name": "Near North", "address": "310 W. Division Street", "hours": "M, W: 12PM-7PM; TU, TH: 10AM-5PM; F, SA: 10AM-5PM; SU: Closed", "phone": "(312) 744-0991"}}, {"type": "Feature", "geometry": {"type": "Point", "coordinates": [-87.70209, 41.738313]}, "properties": {"name": "Wrightwood-Ashburn", "address": "8530 S. Kedzie Avenue", "hours": "M, W: 12PM-7PM; TU, TH: 10AM-5PM; F, SA: 10AM-5PM; SU: Closed", "phone": "(312) 747-2696"}}, {"type": "Feature", "geometry": {"type": "Point", "coordinates": [-87.723756, 41.778629]}, "properties": {"name": "West Lawn", "address": "4020 W. 63rd Street", "hours": "M, W: 12PM-7PM; TU, TH: 10AM-5PM; F, SA: 10AM-5PM; SU: Closed", "phone": "(312) 747-7381"}}, {"type": "Feature", "geometry": {"type": "Point", "coordinates": [-87.600377, 41.762277]}, "properties": {"name": "Greater Grand Crossing", "address": "1000 East 73rd Street", "hours": "M, W: 12PM-7PM; TU, TH: 10AM-5PM; F, SA: 10AM-5PM; SU: Closed", "phone": "(312) 745-1608"}}, {"type": "Feature", "geometry": {"type": "Point", "coordinates": [-87.657726, 41.732282]}, "properties": {"name": "Brainerd", "address": "1350 W. 89th Street", "hours": "M, W: 10AM-5PM;  TU, TH: 12PM-7PM; F, SA: 10AM-5PM; SU: Closed", "phone": "(312) 747-6291"}}, {"type": "Feature", "geometry": {"type": "Point", "coordinates": [-87.670434, 41.940599]}, "properties": {"name": "Lincoln Belmont", "address": "1659 W. Melrose Street", "hours": "M, W: 10AM-5PM;  TU, TH: 12PM-7PM; F, SA: 10AM-5PM; SU: Closed", "phone": "(312) 744-0166"}}, {"type": "Feature", "geometry": {"type": "Point", "coordinates": [-87.733923, 41.909856]}, "properties": {"name": "North Pulaski", "address": "4300 W. North Avenue", "hours": "M, W: 10AM-5PM;  TU, TH: 12PM-7PM; F, SA: 10AM-5PM; SU: Closed", "phone": "(312) 744-9573"}}, {"type": "Feature", "geometry": {"type": "Point", "coordinates": [-87.762043, 41.997245]}, "properties": {"name": "Edgebrook", "address": "5331 W. Devon Avenue", "hours": "M, W: 12PM-7PM; TU, TH: 10AM-5PM; F, SA: 10AM-5PM; SU: Closed", "phone": "(312) 744-8313"}}, {"type": "Feature", "geometry": {"type": "Point", "coordinates": [-87.565489, 41.713513]}, "properties": {"name": "Jeffery Manor", "address": "2401 E. 100th Street", "hours": "M, W: 10AM-5PM;  TU, TH: 12PM-7PM; F, SA: 10AM-5PM; SU: Closed", "phone": "(312) 747-6479"}}, {"type": "Feature", "geometry": {"type": "Point", "coordinates": [-87.672288, 41.721148]}, "properties": {"name": "Beverly", "address": "1962 W. 95th Street", "hours": "M, W: 12PM-7PM; TU, TH: 10AM-5PM; F, SA: 10AM-5PM; SU: Closed", "phone": "(312) 747-9673"}}, {"type": "Feature", "geometry": {"type": "Point", "coordinates": [-87.766942, 41.889281]}, "properties": {"name": "Austin", "address": "5615 W. Race Avenue", "hours": "M, W: 12PM-7PM; TU, TH: 10AM-5PM; F, SA: 10AM-5PM; SU: 1PM-5PM", "phone": "(312) 746-5038"}}, {"type": "Feature", "geometry": {"type": "Point", "coordinates": [-87.754875, 41.938748]}, "properties": {"name": "Portage-Cragin", "address": "5108 W. Belmont Avenue", "hours": "M, W: 12PM-7PM; TU, TH: 10AM-5PM; F, SA: 10AM-5PM; SU: 1PM-5PM", "phone": "(312) 744-0152"}}, {"type": "Feature", "geometry": {"type": "Point", "coordinates": [-87.646149, 41.8327]}, "properties": {"name": "Daley, Richard J.-Bridgeport", "address": "3400 S. Halsted Street", "hours": "M, W: 10AM-5PM;  TU, TH: 12PM-7PM; F, SA: 10AM-5PM; SU: Closed", "phone": "(312) 747-8990"}}, {"type": "Feature", "geometry": {"type": "Point", "coordinates": [-87.637516, 41.78199]}, "properties": {"name": "Kelly", "address": "6151 S. Normal Boulevard", "hours": "M, W: 10AM-5PM;  TU, TH: 12PM-7PM; F, SA: 10AM-5PM; SU: Closed", "phone": "(312) 747-8418"}}, {"type": "Feature", "geometry": {"type": "Point", "coordinates": [-87.768878, 41.909401]}, "properties": {"name": "North Austin", "address": "5724 W. North Avenue", "hours": "M, W: 12PM-7PM; TU, TH: 10AM-5PM; F, SA: 10AM-5PM; SU: Closed", "phone": "(312) 746-4233"}}, {"type": "Feature", "geometry": {"type": "Point", "coordinates": [-87.643122, 41.72067400000001]}, "properties": {"name": "Woodson Regional", "address": "9525 S. Halsted Street", "hours": "M-TH: 9AM-8PM; F, SA: 9AM-5PM; SU: 1PM-5PM", "phone": "(312) 747-6900"}}, {"type": "Feature", "geometry": {"type": "Point", "coordinates": [-87.813899, 41.94331]}, "properties": {"name": "Dunning", "address": "7455 W. Cornelia Avenue", "hours": "M, W: 12PM-7PM; TU, TH: 10AM-5PM; F, SA: 10AM-5PM; SU: 1PM-5PM", "phone": "(312) 743-0480"}}, {"type": "Feature", "geometry": {"type": "Point", "coordinates": [-87.627695, 41.876301]}, "properties": {"name": "Harold Washington-HWLC", "address": "400 S. State Street", "hours": "M-TH: 9AM-8PM; F, SA: 9AM-5PM; SU: 1PM-5PM", "phone": "(312) 747-4300"}}, {"type": "Feature", "geometry": {"type": "Point", "coordinates": [-87.703067, 41.814848]}, "properties": {"name": "Brighton Park", "address": "4314 S. Archer Avenue", "hours": "M, W: 10AM-5PM;  TU, TH: 12PM-7PM; F, SA: 10AM-5PM; SU: Closed", "phone": "(312) 747-0666"}}, {"type": "Feature", "geometry": {"type": "Point", "coordinates": [-87.690175, 42.00536]}, "properties": {"name": "Northtown", "address": "6800 N. Western Avenue", "hours": "M, W: 10AM-5PM;  TU, TH: 12PM-7PM; F, SA: 10AM-5PM; SU: 1PM-5PM", "phone": "(312) 744-2292"}}, {"type": "Feature", "geometry": {"type": "Point", "coordinates": [-87.61733500000001, 41.832238000000004]}, "properties": {"name": "King", "address": "3436 S. King Drive", "hours": "M, W: 10AM-5PM;  TU, TH: 12PM-7PM; F, SA: 10AM-5PM; SU: Closed", "phone": "(312) 747-7543"}}, {"type": "Feature", "geometry": {"type": "Point", "coordinates": [-87.61416, 41.751132]}, "properties": {"name": "Whitney M. Young, Jr.", "address": "415 E. 79th Street", "hours": "M, W: 10AM-5PM;  TU, TH: 12PM-7PM; F, SA: 10AM-5PM; SU: 1PM-5PM", "phone": "(312) 747-0039"}}, {"type": "Feature", "geometry": {"type": "Point", "coordinates": [-87.622776, 41.807273]}, "properties": {"name": "Hall", "address": "4801 S. Michigan Avenue", "hours": "M, W: 10AM-5PM;  TU, TH: 12PM-7PM; F, SA: 10AM-5PM; SU: 1PM-5PM", "phone": "(312) 747-2541"}}, {"type": "Feature", "geometry": {"type": "Point", "coordinates": [-87.719889, 41.954219]}, "properties": {"name": "Independence", "address": "4024 N. Elston Avenue", "hours": "M, W: 10AM-5PM;  TU, TH: 12PM-7PM; F, SA: 10AM-5PM; SU: Closed", "phone": "(312) 744-0900"}}, {"type": "Feature", "geometry": {"type": "Point", "coordinates": [-87.782282, 41.7768]}, "properties": {"name": "Clearing", "address": "6423 W. 63rd Place", "hours": "M, W: 12PM-7PM; TU, TH: 10AM-5PM; F, SA: 10AM-5PM; SU: Closed", "phone": "(312) 747-5657"}}, {"type": "Feature", "geometry": {"type": "Point", "coordinates": [-87.703231, 41.781967]}, "properties": {"name": "Chicago Lawn", "address": "6120 S. Kedzie Avenue", "hours": "M, W: 10AM-5PM;  TU, TH: 12PM-7PM; F, SA: 10AM-5PM; SU: 1PM-5PM", "phone": "(312) 747-0639"}}, {"type": "Feature", "geometry": {"type": "Point", "coordinates": [-87.66074, 41.971414]}, "properties": {"name": "Bezazian", "address": "1226 W. Ainslie Street", "hours": "M, W: 12PM-7PM; TU, TH: 10AM-5PM; F, SA: 10AM-5PM; SU: Closed", "phone": "(312) 744-0019"}}, {"type": "Feature", "geometry": {"type": "Point", "coordinates": [-87.709792, 41.864527]}, "properties": {"name": "Douglass", "address": "3353 W. 13th Street", "hours": "M, W: 10AM-5PM;  TU, TH: 12PM-7PM; F, SA: 10AM-5PM; SU: Closed", "phone": "(312) 747-3725"}}, {"type": "Feature", "geometry": {"type": "Point", "coordinates": [-87.674251, 41.692445]}, "properties": {"name": "Walker", "address": "11071 S. Hoyne Avenue", "hours": "M, W: 10AM-5PM;  TU, TH: 12PM-7PM; F, SA: 10AM-5PM; SU: Closed", "phone": "(312) 747-1920"}}, {"type": "Feature", "geometry": {"type": "Point", "coordinates": [-87.677601, 41.808523]}, "properties": {"name": "Back of the Yards", "address": "2111 W. 47th Street", "hours": "M, W: 10AM-5PM;  TU, TH: 12PM-7PM; F, SA: 10AM-5PM; SU: Closed", "phone": "(312) 747-9595"}}, {"type": "Feature", "geometry": {"type": "Point", "coordinates": [-87.705655, 41.910536]}, "properties": {"name": "Humboldt Park", "address": "1605 N. Troy St.", "hours": "M, W: 12PM-7PM; TU, TH: 10AM-5PM; F, SA: 10AM-5PM; SU: Closed", "phone": "(312) 744-2244"}}, {"type": "Feature", "geometry": {"type": "Point", "coordinates": [-87.654421, 41.883595]}, "properties": {"name": "West Loop", "address": "122 N. Aberdeen Street", "hours": "M, W: 10AM-5PM;  TU, TH: 12PM-7PM; F, SA: 10AM-5PM; SU: Closed", "phone": "(312) 744-2995"}}, {"type": "Feature", "geometry": {"type": "Point", "coordinates": [-87.752302, 41.873959000000006]}, "properties": {"name": "Austin Satellite", "address": "5071 West Congress", "hours": "M-F 8:30 a.m. - 4:30 p.m.", "phone": "312-743-1538"}}, {"type": "Feature", "geometry": {"type": "Point", "coordinates": [-87.651442, 41.853648]}, "properties": {"name": "Pilsen Satellite", "address": "2121 South Morgan", "hours": "M-F 8:30 a.m. - 4:30 p.m.", "phone": "312-743-0493"}}, {"type": "Feature", "geometry": {"type": "Point", "coordinates": [-87.667849, 41.896063]}, "properties": {"name": "West Town Satellite", "address": "1613 West Chicago Ave.", "hours": "M-F 8:30 a.m. - 4:30 p.m.", "phone": "312-743-1016"}}, {"type": "Feature", "geometry": {"type": "Point", "coordinates": [-87.686075, 41.955324]}, "properties": {"name": "North Center Satellite", "address": "4040 North Oakley", "hours": "M-F 8:30 a.m. - 4:30 p.m.", "phone": "312-744-4015"}}, {"type": "Feature", "geometry": {"type": "Point", "coordinates": [-87.794131, 41.98646]}, "properties": {"name": "Norwood Park Satellite", "address": "5801 North Natoma", "hours": "M-F 8:30 a.m. - 4:30 p.m.", "phone": "773-775-6071"}}, {"type": "Feature", "geometry": {"type": "Point", "coordinates": [-87.762131, 41.955113]}, "properties": {"name": "Portage Park Satellite", "address": "4100 North Long", "hours": "M-F 8:30 a.m. - 4:30 p.m.", "phone": "312-744-9022"}}, {"type": "Feature", "geometry": {"type": "Point", "coordinates": [-87.622178, 41.721692]}, "properties": {"name": "Abbott Park Satellite", "address": "49 East 95th St.", "hours": "M-F 8:30 a.m. - 4:30 p.m.", "phone": "312-745-3493"}}, {"type": "Feature", "geometry": {"type": "Point", "coordinates": [-87.605114, 41.743355]}, "properties": {"name": "Chatham Satellite", "address": "8300 South Cottage Grove", "hours": "M-F 8:30 a.m. - 4:30 p.m.", "phone": "312-745-0401"}}, {"type": "Feature", "geometry": {"type": "Point", "coordinates": [-87.620598, 41.704526]}, "properties": {"name": "Roseland Satellite", "address": "10426 South Michigan", "hours": "M-F 8:30 a.m. - 4:30 p.m.", "phone": "312-745-1500"}}, {"type": "Feature", "geometry": {"type": "Point", "coordinates": [-87.753145, 41.797198]}, "properties": {"name": "Garfield Ridge Satellite", "address": "5674-B South Archer", "hours": "M-F 8:30 a.m. - 4:30 p.m.", "phone": "312-745-4255"}}, {"type": "Feature", "geometry": {"type": "Point", "coordinates": [-87.746434, 41.929892]}, "properties": {"name": "Kelvyn Park Satellite", "address": "2715 North Cicero", "hours": "M-F 8:30 a.m. - 4:30 p.m.", "phone": "312-744-3350"}}, {"type": "Feature", "geometry": {"type": "Point", "coordinates": [-87.650262, 41.750549]}, "properties": {"name": "Auburn Gresham Satellite", "address": "1040 West 79th St.", "hours": "M-F 8:30 a.m. - 4:30 p.m.", "phone": "312-745-4797"}}, {"type": "Feature", "geometry": {"type": "Point", "coordinates": [-87.641876, 41.77981]}, "properties": {"name": "Englewood Satellite", "address": "653-657 West 63rd St.", "hours": "M-F 8:30 a.m. - 4:30 p.m.", "phone": "312-745-3328"}}, {"type": "Feature", "geometry": {"type": "Point", "coordinates": [-87.72230000000002, 41.756304]}, "properties": {"name": "Daley College", "address": "7500 S. Pulaski", "hours": "M-F 7am - 8:30 pm; SA-SU CLOSED", "phone": "773-838-7500"}}, {"type": "Feature", "geometry": {"type": "Point", "coordinates": [-87.627043, 41.885834]}, "properties": {"name": "Harold Washington College", "address": "30 E. Lake St.", "hours": "M-F 8 am - 4pm; SA-SU CLOSED", "phone": "312-553-5600"}}, {"type": "Feature", "geometry": {"type": "Point", "coordinates": [-87.644698, 41.779354]}, "properties": {"name": "Kennedy-King College", "address": "6301 S. Halsted", "hours": "M-F 10 am - 5pm; SA-SU CLOSED", "phone": "773-602-5000"}}, {"type": "Feature", "geometry": {"type": "Point", "coordinates": [-87.674031, 41.877496]}, "properties": {"name": "Malcolm X College", "address": "1900 W. Jackson", "hours": "M-F 7 am - 10 pm; SA 7 am -5 pm; SU CLOSED", "phone": "312-850-7000"}}, {"type": "Feature", "geometry": {"type": "Point", "coordinates": [-87.592931, 41.71139]}, "properties": {"name": "Olive-Harvey College", "address": "10001 S Woodlawn Ave", "hours": "M-F 9 am - 5 pm; SA-SU CLOSED", "phone": "773-291-6100"}}, {"type": "Feature", "geometry": {"type": "Point", "coordinates": [-87.659034, 41.9654]}, "properties": {"name": "Truman College", "address": "1145 W. Wilson Ave", "hours": "M-F 8 am - 6 pm; SA-SU CLOSED", "phone": "773-907-4000"}}, {"type": "Feature", "geometry": {"type": "Point", "coordinates": [-87.786759, 41.95882]}, "properties": {"name": "Wright College", "address": "4300 N. Narragansett Ave", "hours": "M-F 7 am - 4 pm; SA-SU CLOSED", "phone": "773-777-7900"}}]}