{"type": "FeatureCollection", "crs": {"type": "name", "properties": {"name": "urn:ogc:def:crs:OGC:1.3:CRS84"}}, "features": [{"type": "Feature", "geometry": {"type": "Point", "coordinates": [-87.75628018475894, 41.962816691930115]}, "properties": {"name": "Counseling Center of Illinois Inc.", "address": "4515 Milwaukee St", "hours": "Not Available", "phone": "Not Available", "type": "Substance Abuse Services"}}, {"type": "Feature", "geometry": {"type": "Point", "coordinates": [-87.61983705097956, 41.896861495493845]}, "properties": {"name": "Family Guidance Centers Inc. ", "address": "310 Chicago Ave", "hours": "Not Available", "phone": "Not Available", "type": "Substance Abuse Services"}}, {"type": "Feature", "geometry": {"type": "Point", "coordinates": [-87.64852064421453, 41.78136561906347]}, "properties": {"name": "Forever Free Program ", "address": "6212 Sangamon St", "hours": "Not Available", "phone": "Not Available", "type": "Substance Abuse Services"}}, {"type": "Feature", "geometry": {"type": "Point", "coordinates": [-87.69483850362143, 41.8665914855157]}, "properties": {"name": "A Safe Haven & Main Intake Number", "address": "2750 Roosevelt Rd", "hours": "Not Available", "phone": "Not Available", "type": "Substance Abuse Services"}}, {"type": "Feature", "geometry": {"type": "Point", "coordinates": [-87.62255595283924, 41.80205833592972]}, "properties": {"name": "McDermott Center/Haymarket", "address": "106 51st St", "hours": "Not Available", "phone": "Not Available", "type": "Substance Abuse Services"}}, {"type": "Feature", "geometry": {"type": "Point", "coordinates": [-87.66337279700195, 41.74794306673135]}, "properties": {"name": "Fola Community Action Services Inc.", "address": "8014 Ashland Ave", "hours": "Not Available", "phone": "Not Available", "type": "Substance Abuse Services"}}, {"type": "Feature", "geometry": {"type": "Point", "coordinates": [-87.69580624039354, 41.961328302784246]}, "properties": {"name": "DUI Alternatives Treatment Center, Inc.", "address": "2656 Montrose Ave", "hours": "Not Available", "phone": "Not Available", "type": "Substance Abuse Services"}}, {"type": "Feature", "geometry": {"type": "Point", "coordinates": [-87.58096528297118, 41.766228967035765]}, "properties": {"name": "Annie B Jones Community Services Inc.", "address": "1818 71st St", "hours": "Not Available", "phone": "Not Available", "type": "Substance Abuse Services"}}, {"type": "Feature", "geometry": {"type": "Point", "coordinates": [-87.68701296854948, 41.74993869817763]}, "properties": {"name": "New Hope Community Service Center", "address": "2559 79th St", "hours": "Not Available", "phone": "Not Available", "type": "Substance Abuse Services"}}, {"type": "Feature", "geometry": {"type": "Point", "coordinates": [-87.64889371233028, 41.89528798801189]}, "properties": {"name": "The Chicago Center for Recovery & Empowerment, NFP", "address": "700 Green St", "hours": "Not Available", "phone": "Not Available", "type": "Substance Abuse Services"}}, {"type": "Feature", "geometry": {"type": "Point", "coordinates": [-87.65893362327762, 41.91773902388309]}, "properties": {"name": "Anixter Center Outpatient Services", "address": "2001 Clybourn Ave", "hours": "Not Available", "phone": "Not Available", "type": "Substance Abuse Services"}}, {"type": "Feature", "geometry": {"type": "Point", "coordinates": [-87.6240274582201, 41.688030233139386]}, "properties": {"name": "Cornerstone Recovering Community", "address": "28 113th Pl", "hours": "Not Available", "phone": "Not Available", "type": "Substance Abuse Services"}}, {"type": "Feature", "geometry": {"type": "Point", "coordinates": [-87.62362863748717, 41.842663407158184]}, "properties": {"name": "Henry Booth House Family Health Center", "address": "2850 Michigan Ave", "hours": "Not Available", "phone": "Not Available", "type": "Substance Abuse Services"}}, {"type": "Feature", "geometry": {"type": "Point", "coordinates": [-87.6951327218215, 41.838739576099925]}, "properties": {"name": "Gateway Foundation, Inc./ Cook County Sheriff DCSI", "address": "3026 California Ave", "hours": "Not Available", "phone": "Not Available", "type": "Substance Abuse Services"}}, {"type": "Feature", "geometry": {"type": "Point", "coordinates": [-87.68584461561728, 41.90754955583677]}, "properties": {"name": "Resurrection Behavioral Health at St. Mary", "address": "1431 Claremont Ave", "hours": "Not Available", "phone": "Not Available", "type": "Substance Abuse Services"}}, {"type": "Feature", "geometry": {"type": "Point", "coordinates": [-87.67406945689305, 41.998075176418624]}, "properties": {"name": "Lutheran Social Services of Illinois \u2013 Behavioral Health Services/Edgewater", "address": "1758 Devon Ave", "hours": "Not Available", "phone": "Not Available", "type": "Substance Abuse Services"}}, {"type": "Feature", "geometry": {"type": "Point", "coordinates": [-87.70688356291178, 41.9121347729336]}, "properties": {"name": "Gateway Foundation Alcohol & Drug Treatment/Kedzie", "address": "1706 Kedzie Ave", "hours": "Not Available", "phone": "Not Available", "type": "Substance Abuse Services"}}, {"type": "Feature", "geometry": {"type": "Point", "coordinates": [-87.58096528297118, 41.766228967035765]}, "properties": {"name": "ABJ Community Services, Inc.", "address": "1818 71st St", "hours": "Not Available", "phone": "Not Available", "type": "Substance Abuse Services"}}, {"type": "Feature", "geometry": {"type": "Point", "coordinates": [-87.65482024450336, 41.968169045266336]}, "properties": {"name": "Alternatives, Incorporated", "address": "4730 Sheridan Rd", "hours": "Not Available", "phone": "Not Available", "type": "Substance Abuse Services"}}, {"type": "Feature", "geometry": {"type": "Point", "coordinates": [-87.80204000000003, 41.94567999999998]}, "properties": {"name": "Alcohol Drug Safety Intervention, Inc.", "address": "5146 Belmont", "hours": "Not Available", "phone": "Not Available", "type": "Substance Abuse Services"}}, {"type": "Feature", "geometry": {"type": "Point", "coordinates": [-87.68862294909326, 41.883534381835766]}, "properties": {"name": "HAS/Illinois Department of Corrections, ATC, Westside ", "address": "121 Campbell Ave", "hours": "Not Available", "phone": "Not Available", "type": "Substance Abuse Services"}}, {"type": "Feature", "geometry": {"type": "Point", "coordinates": [-87.62549597749528, 41.88316426359813]}, "properties": {"name": "Central States Institute of Addiction", "address": "69 Washington St", "hours": "Not Available", "phone": "Not Available", "type": "Substance Abuse Services"}}, {"type": "Feature", "geometry": {"type": "Point", "coordinates": [-87.72179542543023, 41.90426659094039]}, "properties": {"name": "El Rincon Community Clinic", "address": "3809 Grand Ave", "hours": "Not Available", "phone": "Not Available", "type": "Substance Abuse Services"}}, {"type": "Feature", "geometry": {"type": "Point", "coordinates": [-87.66927815924298, 41.79027482889277]}, "properties": {"name": "Southwood Interventions Outpatient ", "address": "5701 Wood St", "hours": "Not Available", "phone": "Not Available", "type": "Substance Abuse Services"}}, {"type": "Feature", "geometry": {"type": "Point", "coordinates": [-87.65382199705084, 41.93378796408621]}, "properties": {"name": "New Hope Recovery Center, LLC", "address": "2835 Sheffield Ave", "hours": "Not Available", "phone": "Not Available", "type": "Substance Abuse Services"}}, {"type": "Feature", "geometry": {"type": "Point", "coordinates": [-87.674112040166, 41.9226735286397]}, "properties": {"name": "PDSSC/Chicago Inc.", "address": "2260 Elston Ave", "hours": "Not Available", "phone": "Not Available", "type": "Substance Abuse Services"}}, {"type": "Feature", "geometry": {"type": "Point", "coordinates": [-87.60704825830692, 41.77423924286808]}, "properties": {"name": "Prosperity House, Inc.", "address": "6620 Evans Ave", "hours": "Not Available", "phone": "Not Available", "type": "Substance Abuse Services"}}, {"type": "Feature", "geometry": {"type": "Point", "coordinates": [-87.7869360037052, 41.95284571074741]}, "properties": {"name": "Youth Outreach Services \u2013 Irving Park", "address": "6417 Irving Park Rd", "hours": "Not Available", "phone": "Not Available", "type": "Substance Abuse Services"}}, {"type": "Feature", "geometry": {"type": "Point", "coordinates": [-87.66689813935682, 41.88446015077909]}, "properties": {"name": "Caritas Central Intake", "address": "140 Ashland Ave", "hours": "Not Available", "phone": "Not Available", "type": "Substance Abuse Services"}}, {"type": "Feature", "geometry": {"type": "Point", "coordinates": [-87.73494292756084, 41.863626714106466]}, "properties": {"name": "New Age Services Corporation", "address": "1330 Kostner Ave", "hours": "Not Available", "phone": "Not Available", "type": "Substance Abuse Services"}}, {"type": "Feature", "geometry": {"type": "Point", "coordinates": [-87.717925475368, 41.778671233708316]}, "properties": {"name": "Living Trees Center, Inc.", "address": "3801 63rd St", "hours": "Not Available", "phone": "Not Available", "type": "Substance Abuse Services"}}, {"type": "Feature", "geometry": {"type": "Point", "coordinates": [-87.65455944111483, 41.95519182838353]}, "properties": {"name": "Howard Brown Health Center", "address": "4025 Sheridan Rd", "hours": "Not Available", "phone": "Not Available", "type": "Substance Abuse Services"}}, {"type": "Feature", "geometry": {"type": "Point", "coordinates": [-87.667036259375, 41.885810096963056]}, "properties": {"name": "Healthcare Alternative Systems, Inc./NEXA", "address": "210 Ashland Ave", "hours": "Not Available", "phone": "Not Available", "type": "Substance Abuse Services"}}, {"type": "Feature", "geometry": {"type": "Point", "coordinates": [-87.60146346850496, 41.748509639609836]}, "properties": {"name": "Henry\u2019s Sober Living House", "address": "8032 Ingleside Ave", "hours": "Not Available", "phone": "Not Available", "type": "Substance Abuse Services"}}, {"type": "Feature", "geometry": {"type": "Point", "coordinates": [-87.65237075114024, 41.877929273004014]}, "properties": {"name": "Agape Headquarters", "address": "1016 Jackson Blvd", "hours": "Not Available", "phone": "Not Available", "type": "Substance Abuse Services"}}, {"type": "Feature", "geometry": {"type": "Point", "coordinates": [-87.70118919361747, 41.703701184116724]}, "properties": {"name": "Prevention Classes Inc.", "address": "10435 Kedzie Ave", "hours": "Not Available", "phone": "Not Available", "type": "Substance Abuse Services"}}, {"type": "Feature", "geometry": {"type": "Point", "coordinates": [-87.70003548601109, 41.84372621020267]}, "properties": {"name": "Westcare Cook County Jail Impact Program", "address": "2717 Sacramento Ave", "hours": "Not Available", "phone": "Not Available", "type": "Substance Abuse Services"}}, {"type": "Feature", "geometry": {"type": "Point", "coordinates": [-87.72097998128257, 41.868998982848034]}, "properties": {"name": "Gateway Foundation Alcohol & Drug Treatment/Chicago West", "address": "3828 Taylor St", "hours": "Not Available", "phone": "Not Available", "type": "Substance Abuse Services"}}, {"type": "Feature", "geometry": {"type": "Point", "coordinates": [-87.72311000000002, 41.88020000000006]}, "properties": {"name": "Jack Clarks Family Recovering Community Inc.", "address": "3200 3206 W Fulton St", "hours": "Not Available", "phone": "Not Available", "type": "Substance Abuse Services"}}, {"type": "Feature", "geometry": {"type": "Point", "coordinates": [-87.62454995441514, 41.88199849964541]}, "properties": {"name": "Resurrection Addiction Services \u2013 Chicago Loop", "address": "8 Michigan Ave", "hours": "Not Available", "phone": "Not Available", "type": "Substance Abuse Services"}}, {"type": "Feature", "geometry": {"type": "Point", "coordinates": [-87.61878441078926, 41.75833922939006]}, "properties": {"name": "Enhanced Clinical Solutions Inc.", "address": "200 75th St", "hours": "Not Available", "phone": "Not Available", "type": "Substance Abuse Services"}}, {"type": "Feature", "geometry": {"type": "Point", "coordinates": [-87.61656277643596, 41.78026916833027]}, "properties": {"name": "King Drive Counseling Assessment and Referral Services Inc.", "address": "370 63rd St", "hours": "Not Available", "phone": "Not Available", "type": "Substance Abuse Services"}}, {"type": "Feature", "geometry": {"type": "Point", "coordinates": [-87.62615019895455, 41.88349965585711]}, "properties": {"name": "DUI Professional Providers, Inc. ", "address": "111 Wabash", "hours": "Not Available", "phone": "Not Available", "type": "Substance Abuse Services"}}, {"type": "Feature", "geometry": {"type": "Point", "coordinates": [-87.57933115336391, 41.73672852102601]}, "properties": {"name": "Community Mental Health Council, Inc. MISA Outpatient Services", "address": "8704 Constance Ave", "hours": "Not Available", "phone": "Not Available", "type": "Substance Abuse Services"}}, {"type": "Feature", "geometry": {"type": "Point", "coordinates": [-87.62222881416153, 41.85419796449315]}, "properties": {"name": "Specialized Assistance Services NFP", "address": "2101 Indiana Ave", "hours": "Not Available", "phone": "Not Available", "type": "Substance Abuse Services"}}, {"type": "Feature", "geometry": {"type": "Point", "coordinates": [-87.66292693926722, 41.985462240397844]}, "properties": {"name": "Community Counseling Center of Chicago", "address": "5691 Ridge Ave", "hours": "Not Available", "phone": "Not Available", "type": "Substance Abuse Services"}}, {"type": "Feature", "geometry": {"type": "Point", "coordinates": [-87.68043293589778, 42.01550036366842]}, "properties": {"name": "A Safe Haven Damen", "address": "7349 Damen Ave", "hours": "Not Available", "phone": "Not Available", "type": "Substance Abuse Services"}}, {"type": "Feature", "geometry": {"type": "Point", "coordinates": [-87.67701132399912, 41.87407884521311]}, "properties": {"name": "Cook County Bureau of Health Services The Core Center", "address": "2020 Harrison St", "hours": "Not Available", "phone": "Not Available", "type": "Substance Abuse Services"}}, {"type": "Feature", "geometry": {"type": "Point", "coordinates": [-87.6957271614759, 41.86256415785734]}, "properties": {"name": "Anixter Center/Schwab Rehabilitation Center", "address": "1401 California Ave", "hours": "Not Available", "phone": "Not Available", "type": "Substance Abuse Services"}}, {"type": "Feature", "geometry": {"type": "Point", "coordinates": [-87.62427027516804, 41.68712191788978]}, "properties": {"name": "HRDI \u2013 SW Opioid Treatment Program", "address": "33 114th St", "hours": "Not Available", "phone": "Not Available", "type": "Substance Abuse Services"}}, {"type": "Feature", "geometry": {"type": "Point", "coordinates": [-87.6803420903127, 41.86750484184664]}, "properties": {"name": "TASC, Inc. Area 01 - JJS", "address": "1100 Hamilton", "hours": "Not Available", "phone": "Not Available", "type": "Substance Abuse Services"}}, {"type": "Feature", "geometry": {"type": "Point", "coordinates": [-87.67701132399912, 41.87407884521311]}, "properties": {"name": "The Ruth Rothstein Core Center", "address": "2020 Harrison St", "hours": "Not Available", "phone": "Not Available", "type": "Substance Abuse Services"}}, {"type": "Feature", "geometry": {"type": "Point", "coordinates": [-87.66475834891565, 41.88014140595551]}, "properties": {"name": "Salvation Army Harbor Light Center", "address": "1515 Monroe St", "hours": "Not Available", "phone": "Not Available", "type": "Substance Abuse Services"}}, {"type": "Feature", "geometry": {"type": "Point", "coordinates": [-87.65078228859176, 41.87966676436292]}, "properties": {"name": "McDermott Center/Haymarket Center ", "address": "120 Sangamon St", "hours": "Not Available", "phone": "Not Available", "type": "Substance Abuse Services"}}, {"type": "Feature", "geometry": {"type": "Point", "coordinates": [-87.65299616653981, 41.93725942129826]}, "properties": {"name": "Behavioral Health Services at APIMMC", "address": "938 Nelson St", "hours": "Not Available", "phone": "Not Available", "type": "Substance Abuse Services"}}, {"type": "Feature", "geometry": {"type": "Point", "coordinates": [-87.65299616653981, 41.93725942129826]}, "properties": {"name": "Advocate Healthcare Clean Start", "address": "938 Nelson St", "hours": "Not Available", "phone": "Not Available", "type": "Substance Abuse Services"}}, {"type": "Feature", "geometry": {"type": "Point", "coordinates": [-87.65695333229225, 41.96489902319449]}, "properties": {"name": "The McDermott Center/ Haymarket", "address": "4573 Broadway", "hours": "Not Available", "phone": "Not Available", "type": "Substance Abuse Services"}}, {"type": "Feature", "geometry": {"type": "Point", "coordinates": [-87.69523416534639, 41.84246762564018]}, "properties": {"name": "The McDermott Center/ Haymarket", "address": "2700 California Ave", "hours": "Not Available", "phone": "Not Available", "type": "Substance Abuse Services"}}, {"type": "Feature", "geometry": {"type": "Point", "coordinates": [-87.60855115348092, 41.75846610250935]}, "properties": {"name": "Nuway Community Services, Inc.", "address": "659 75th St", "hours": "Not Available", "phone": "Not Available", "type": "Substance Abuse Services"}}, {"type": "Feature", "geometry": {"type": "Point", "coordinates": [-87.76567686321175, 41.86551956538324]}, "properties": {"name": "Chicago Treatment & Counseling Centers, Inc. ", "address": "5635 Roosevelt Rd", "hours": "Not Available", "phone": "Not Available", "type": "Substance Abuse Services"}}, {"type": "Feature", "geometry": {"type": "Point", "coordinates": [-87.79238953532536, 41.792162730912025]}, "properties": {"name": "Polish American Addictions Counseling, Inc.", "address": "6814 Archer Ave", "hours": "Not Available", "phone": "Not Available", "type": "Substance Abuse Services"}}, {"type": "Feature", "geometry": {"type": "Point", "coordinates": [-87.67569383410755, 41.8498034719765]}, "properties": {"name": "Pilsen Wellness Center", "address": "2319 Damen Ave", "hours": "Not Available", "phone": "Not Available", "type": "Substance Abuse Services"}}, {"type": "Feature", "geometry": {"type": "Point", "coordinates": [-87.56376846388233, 41.76176113394176]}, "properties": {"name": "A Safe Haven", "address": "7346 Kingston St", "hours": "Not Available", "phone": "Not Available", "type": "Substance Abuse Services"}}, {"type": "Feature", "geometry": {"type": "Point", "coordinates": [-87.67480989367077, 42.01013440691068]}, "properties": {"name": "Northwestern Counseling Services, Inc.", "address": "1771 Greenleaf Ave", "hours": "Not Available", "phone": "Not Available", "type": "Substance Abuse Services"}}, {"type": "Feature", "geometry": {"type": "Point", "coordinates": [-87.64171153413521, 41.9052579817265]}, "properties": {"name": "Near North Health Service Corporation \u2013 Winfield Moody Health Center", "address": "1276 Clybourn St", "hours": "Not Available", "phone": "Not Available", "type": "Substance Abuse Services"}}, {"type": "Feature", "geometry": {"type": "Point", "coordinates": [-87.61517000000003, 41.691100000000006]}, "properties": {"name": "Cornerstone Recovering Community", "address": "110011 Wentworth Ave", "hours": "Not Available", "phone": "Not Available", "type": "Substance Abuse Services"}}, {"type": "Feature", "geometry": {"type": "Point", "coordinates": [-87.62471993618266, 41.68983787041827]}, "properties": {"name": "Cornerstone Recovering Community", "address": "44 112th Pl", "hours": "Not Available", "phone": "Not Available", "type": "Substance Abuse Services"}}, {"type": "Feature", "geometry": {"type": "Point", "coordinates": [-87.72547670645893, 41.90995325018469]}, "properties": {"name": "Youth Service Project Inc. ", "address": "3942 North Ave", "hours": "Not Available", "phone": "Not Available", "type": "Substance Abuse Services"}}, {"type": "Feature", "geometry": {"type": "Point", "coordinates": [-87.69520304769682, 41.84132405201849]}, "properties": {"name": "Cermak Health Services of Cook County", "address": "2800 California Ave", "hours": "Not Available", "phone": "Not Available", "type": "Substance Abuse Services"}}, {"type": "Feature", "geometry": {"type": "Point", "coordinates": [-87.62355981076485, 41.84680553741231]}, "properties": {"name": "Mercy Hospital & Medical Center \u2013 Alcoholism & Drug Dependency Program", "address": "2525 Michigan Ave", "hours": "Not Available", "phone": "Not Available", "type": "Substance Abuse Services"}}, {"type": "Feature", "geometry": {"type": "Point", "coordinates": [-87.60523, 41.74405000000007]}, "properties": {"name": "Henry\u2019s Sober Living House", "address": "8032 8034 S Ingleside St", "hours": "Not Available", "phone": "Not Available", "type": "Substance Abuse Services"}}, {"type": "Feature", "geometry": {"type": "Point", "coordinates": [-87.65030564791624, 41.92655741497066]}, "properties": {"name": "New Hope Recovery Center", "address": "2451 Lincoln Ave", "hours": "Not Available", "phone": "Not Available", "type": "Substance Abuse Services"}}, {"type": "Feature", "geometry": {"type": "Point", "coordinates": [-87.6475112967094, 41.77981252054381]}, "properties": {"name": "Hardin House/Drexel Counseling Services Inc.", "address": "936 63rd St", "hours": "Not Available", "phone": "Not Available", "type": "Substance Abuse Services"}}, {"type": "Feature", "geometry": {"type": "Point", "coordinates": [-87.65096918475757, 41.88376959460208]}, "properties": {"name": "McDermott Center/Haymarket Center Marovitz Manor", "address": "124 Sangamon St", "hours": "Not Available", "phone": "Not Available", "type": "Substance Abuse Services"}}, {"type": "Feature", "geometry": {"type": "Point", "coordinates": [-87.67091288937732, 42.007872801013555]}, "properties": {"name": "Lutheran Social Services of Illinois \u2013 Men\u2019s Residence North", "address": "1640 Morse Ave", "hours": "Not Available", "phone": "Not Available", "type": "Substance Abuse Services"}}, {"type": "Feature", "geometry": {"type": "Point", "coordinates": [-87.66927815924298, 41.79027482889277]}, "properties": {"name": "Southwood Interventions Men\u2019s Program", "address": "5701 Wood St", "hours": "Not Available", "phone": "Not Available", "type": "Substance Abuse Services"}}, {"type": "Feature", "geometry": {"type": "Point", "coordinates": [-87.5914591777071, 41.707745597700736]}, "properties": {"name": "Universal Family Connection Inc.", "address": "1350 103rd St", "hours": "Not Available", "phone": "Not Available", "type": "Substance Abuse Services"}}, {"type": "Feature", "geometry": {"type": "Point", "coordinates": [-87.70344658662759, 41.851778788234355]}, "properties": {"name": "Pilsen Wellness Center", "address": "3113 Cermak Rd", "hours": "Not Available", "phone": "Not Available", "type": "Substance Abuse Services"}}, {"type": "Feature", "geometry": {"type": "Point", "coordinates": [-87.75139371111973, 41.924153523187925]}, "properties": {"name": "Healthcare Alternative Systems Inc.", "address": "5005 Fullerton Ave", "hours": "Not Available", "phone": "Not Available", "type": "Substance Abuse Services"}}, {"type": "Feature", "geometry": {"type": "Point", "coordinates": [-87.64444214580742, 41.88563739917868]}, "properties": {"name": "Addiction Counseling Educational Services of Catholic Charities of Chgo. (ACES)", "address": "651 Lake St", "hours": "Not Available", "phone": "Not Available", "type": "Substance Abuse Services"}}, {"type": "Feature", "geometry": {"type": "Point", "coordinates": [-87.63700999999998, 41.90442000000013]}, "properties": {"name": "Gutierrez and Associates", "address": "505 LaSalle St", "hours": "Not Available", "phone": "Not Available", "type": "Substance Abuse Services"}}, {"type": "Feature", "geometry": {"type": "Point", "coordinates": [-87.6281754622328, 41.76506032828062]}, "properties": {"name": "Bridging the Tys to Jordan, Inc.", "address": "7122 Vincennes Ave", "hours": "Not Available", "phone": "Not Available", "type": "Substance Abuse Services"}}, {"type": "Feature", "geometry": {"type": "Point", "coordinates": [-87.55551000000003, 41.712690000000066]}, "properties": {"name": "South East Alcohol & Drug Abuse Center (SEADAC)", "address": "8640 Chicago Ave", "hours": "Not Available", "phone": "Not Available", "type": "Substance Abuse Services"}}, {"type": "Feature", "geometry": {"type": "Point", "coordinates": [-87.56378187547728, 41.75231377179375]}, "properties": {"name": "Lutheran Social Services of Illinois \u2013 Men\u2019s Residence South", "address": "7843 Essex Ave", "hours": "Not Available", "phone": "Not Available", "type": "Substance Abuse Services"}}, {"type": "Feature", "geometry": {"type": "Point", "coordinates": [-87.65404624016026, 41.94035413784783]}, "properties": {"name": "Counseling Center of Lakeview", "address": "3225 Sheffield Ave", "hours": "Not Available", "phone": "Not Available", "type": "Substance Abuse Services"}}, {"type": "Feature", "geometry": {"type": "Point", "coordinates": [-87.60928757015989, 41.76582158867387]}, "properties": {"name": "Renewed Hope Community Services", "address": "626 71st St", "hours": "Not Available", "phone": "Not Available", "type": "Substance Abuse Services"}}, {"type": "Feature", "geometry": {"type": "Point", "coordinates": [-87.70603806886054, 41.881199470082755]}, "properties": {"name": "Bobby E. Wright CBHC Additions Program", "address": "9 Kedzie Ave", "hours": "Not Available", "phone": "Not Available", "type": "Substance Abuse Services"}}, {"type": "Feature", "geometry": {"type": "Point", "coordinates": [-87.66641250546104, 42.010347248440496]}, "properties": {"name": "Trilogy, Inc.", "address": "1400 Greenleaf Ave", "hours": "Not Available", "phone": "Not Available", "type": "Substance Abuse Services"}}, {"type": "Feature", "geometry": {"type": "Point", "coordinates": [-87.56871999999998, 41.761489999999924]}, "properties": {"name": "A Safe Haven", "address": "3821 Wrightwood St", "hours": "Not Available", "phone": "Not Available", "type": "Substance Abuse Services"}}, {"type": "Feature", "geometry": {"type": "Point", "coordinates": [-87.67099999999999, 41.84863999999999]}, "properties": {"name": "Chicago Treatment & Counseling Centers, Inc. I", "address": "1223 1225 S Ashland Ave", "hours": "Not Available", "phone": "Not Available", "type": "Substance Abuse Services"}}, {"type": "Feature", "geometry": {"type": "Point", "coordinates": [-87.56094370487548, 41.75900342880513]}, "properties": {"name": "South Shore Lakefront, Inc.", "address": "2619 75th St", "hours": "Not Available", "phone": "Not Available", "type": "Substance Abuse Services"}}, {"type": "Feature", "geometry": {"type": "Point", "coordinates": [-87.66729384104974, 41.967980187640194]}, "properties": {"name": "Community Counseling Centers", "address": "4740 Clark St", "hours": "Not Available", "phone": "Not Available", "type": "Substance Abuse Services"}}, {"type": "Feature", "geometry": {"type": "Point", "coordinates": [-87.62596100058312, 41.69071920600703]}, "properties": {"name": "Cornerstone Recovering Community", "address": "103 112th St", "hours": "Not Available", "phone": "Not Available", "type": "Substance Abuse Services"}}, {"type": "Feature", "geometry": {"type": "Point", "coordinates": [-87.62303064001726, 41.687713571702524]}, "properties": {"name": "HRDI-Harriet Tubman Women & Children Treatment Facility Residential Program", "address": "11352 State St", "hours": "Not Available", "phone": "Not Available", "type": "Substance Abuse Services"}}, {"type": "Feature", "geometry": {"type": "Point", "coordinates": [-87.61215640743336, 41.70734767032877]}, "properties": {"name": "Rosemoor Assessment Substance Abuse Program Inc.", "address": "439 103rd St", "hours": "Not Available", "phone": "Not Available", "type": "Substance Abuse Services"}}, {"type": "Feature", "geometry": {"type": "Point", "coordinates": [-87.74718961013275, 41.798044296983676]}, "properties": {"name": "Addiction Recovery Services, Inc.", "address": "5514 Archer Ave", "hours": "Not Available", "phone": "Not Available", "type": "Substance Abuse Services"}}, {"type": "Feature", "geometry": {"type": "Point", "coordinates": [-87.69698046123693, 41.8808898423228]}, "properties": {"name": "Christian Community Health Center/Foot Prints", "address": "2815 Fifth Ave", "hours": "Not Available", "phone": "Not Available", "type": "Substance Abuse Services"}}, {"type": "Feature", "geometry": {"type": "Point", "coordinates": [-87.77341849202169, 41.902092823737895]}, "properties": {"name": "Youth Outreach Services \u2013 Austin ", "address": "5912 Division St", "hours": "Not Available", "phone": "Not Available", "type": "Substance Abuse Services"}}, {"type": "Feature", "geometry": {"type": "Point", "coordinates": [-87.69523416534639, 41.84246762564018]}, "properties": {"name": "HRDI \u2013 Impact Incarceration Program", "address": "2700 California Ave", "hours": "Not Available", "phone": "Not Available", "type": "Substance Abuse Services"}}, {"type": "Feature", "geometry": {"type": "Point", "coordinates": [-87.66859684831577, 41.87941556466699]}, "properties": {"name": "Cathedral Shelter of Chicago Adult Outpatient Program", "address": "1668 Ogden", "hours": "Not Available", "phone": "Not Available", "type": "Substance Abuse Services"}}, {"type": "Feature", "geometry": {"type": "Point", "coordinates": [-87.80710861981339, 41.94983178833224]}, "properties": {"name": "The Way Back Inn", "address": "3821 Harlem Ave", "hours": "Not Available", "phone": "Not Available", "type": "Substance Abuse Services"}}, {"type": "Feature", "geometry": {"type": "Point", "coordinates": [-87.68447552015982, 41.86669893588726]}, "properties": {"name": "TASC, Inc.", "address": "2320 Roosevelt Rd", "hours": "Not Available", "phone": "Not Available", "type": "Substance Abuse Services"}}, {"type": "Feature", "geometry": {"type": "Point", "coordinates": [-87.72527998000733, 41.80778848693755]}, "properties": {"name": "DUI Counseling Center Bayrach Counseling Services", "address": "4059 47th St", "hours": "Not Available", "phone": "Not Available", "type": "Substance Abuse Services"}}, {"type": "Feature", "geometry": {"type": "Point", "coordinates": [-87.685963766378, 41.77478782930598]}, "properties": {"name": "Brighter, Behavior, Choices, Inc. NFP", "address": "6525 Campbell Ave", "hours": "Not Available", "phone": "Not Available", "type": "Substance Abuse Services"}}, {"type": "Feature", "geometry": {"type": "Point", "coordinates": [-87.77232566085166, 41.93849141829946]}, "properties": {"name": "Lutheran Social Services of Illinois \u2013 Behavioral Health Services", "address": "5825 Belmont Ave", "hours": "Not Available", "phone": "Not Available", "type": "Substance Abuse Services"}}, {"type": "Feature", "geometry": {"type": "Point", "coordinates": [-87.66115999999994, 41.971839999999986]}, "properties": {"name": "Chicago Treatment & Counseling Centers, Inc. II", "address": "4453 BRdway Ave", "hours": "Not Available", "phone": "Not Available", "type": "Substance Abuse Services"}}, {"type": "Feature", "geometry": {"type": "Point", "coordinates": [-87.69680059683105, 41.917510235355905]}, "properties": {"name": "Healthcare Alternative Systems Inc.", "address": "2755 Armitage Ave", "hours": "Not Available", "phone": "Not Available", "type": "Substance Abuse Services"}}, {"type": "Feature", "geometry": {"type": "Point", "coordinates": [-87.67396681050712, 41.961945736823566]}, "properties": {"name": "Heartland Human Care Services Inc. Rafael Center", "address": "4411 Ravenswood Ave", "hours": "Not Available", "phone": "Not Available", "type": "Substance Abuse Services"}}, {"type": "Feature", "geometry": {"type": "Point", "coordinates": [-87.69525540910641, 41.844680709253666]}, "properties": {"name": "TASC, Inc.", "address": "2600 California", "hours": "Not Available", "phone": "Not Available", "type": "Substance Abuse Services"}}, {"type": "Feature", "geometry": {"type": "Point", "coordinates": [-87.68913241629882, 41.77911271562359]}, "properties": {"name": "Sky is the Limit Recovery Facility", "address": "2615 63rd St", "hours": "Not Available", "phone": "Not Available", "type": "Substance Abuse Services"}}, {"type": "Feature", "geometry": {"type": "Point", "coordinates": [-87.63790617143272, 41.934516219502854]}, "properties": {"name": "Resurrection Addiction Services \u2013 Lincoln Park Professionals Program", "address": "2913 Commonwealth Ave", "hours": "Not Available", "phone": "Not Available", "type": "Substance Abuse Services"}}, {"type": "Feature", "geometry": {"type": "Point", "coordinates": [-87.64324771017796, 41.717605382918876]}, "properties": {"name": "Christian Community Health Center", "address": "9718 Halsted St", "hours": "Not Available", "phone": "Not Available", "type": "Substance Abuse Services"}}, {"type": "Feature", "geometry": {"type": "Point", "coordinates": [-87.6878967049362, 41.9686698620092]}, "properties": {"name": "DUI Counseling Center DUI Counseling Services at Lawrence", "address": "2334 Lawrence St", "hours": "Not Available", "phone": "Not Available", "type": "Substance Abuse Services"}}, {"type": "Feature", "geometry": {"type": "Point", "coordinates": [-87.76783890402876, 41.94580801994825]}, "properties": {"name": "Procare Centers In Our Lady of Resurrection        ", "address": "5645 Addison", "hours": "Not Available", "phone": "Not Available", "type": "Substance Abuse Services"}}, {"type": "Feature", "geometry": {"type": "Point", "coordinates": [-87.74042346916545, 41.873177509423556]}, "properties": {"name": "Windows of Opportunity Rehabilitation Service Inc.", "address": "4619 Harrison St", "hours": "Not Available", "phone": "Not Available", "type": "Substance Abuse Services"}}, {"type": "Feature", "geometry": {"type": "Point", "coordinates": [-87.65096918475757, 41.88376959460208]}, "properties": {"name": "McDermott Center/Haymarket", "address": "124 Sangamon", "hours": "Not Available", "phone": "Not Available", "type": "Substance Abuse Services"}}, {"type": "Feature", "geometry": {"type": "Point", "coordinates": [-87.63125673949573, 41.88316876833485]}, "properties": {"name": "The IDS Group, Inc.-Chicago", "address": "111 Washington", "hours": "Not Available", "phone": "Not Available", "type": "Substance Abuse Services"}}, {"type": "Feature", "geometry": {"type": "Point", "coordinates": [-87.69696445736236, 41.8184808650583]}, "properties": {"name": "Advance Counseling Services Inc.", "address": "4125 Archer Ave", "hours": "Not Available", "phone": "Not Available", "type": "Substance Abuse Services"}}, {"type": "Feature", "geometry": {"type": "Point", "coordinates": [-87.74434940624535, 41.85586222796403]}, "properties": {"name": "Chicago Treatment & Counseling Centers, Inc. III ", "address": "1849 Cicero Ave", "hours": "Not Available", "phone": "Not Available", "type": "Substance Abuse Services"}}, {"type": "Feature", "geometry": {"type": "Point", "coordinates": [-87.72417595940294, 41.86616794070312]}, "properties": {"name": "Deer Rehabilitation Services Inc.", "address": "3936 Roosevelt Rd", "hours": "Not Available", "phone": "Not Available", "type": "Substance Abuse Services"}}, {"type": "Feature", "geometry": {"type": "Point", "coordinates": [-87.57654325507309, 41.75886083616706]}, "properties": {"name": "IJEGBA Community, Inc. ICI", "address": "1950 75th St", "hours": "Not Available", "phone": "Not Available", "type": "Substance Abuse Services"}}, {"type": "Feature", "geometry": {"type": "Point", "coordinates": [-87.78271261800715, 41.94577099345542]}, "properties": {"name": "DUI-Metropolitan Services Inc.", "address": "6254 Addison St", "hours": "Not Available", "phone": "Not Available", "type": "Substance Abuse Services"}}, {"type": "Feature", "geometry": {"type": "Point", "coordinates": [-87.68528028163576, 41.91544179468849]}, "properties": {"name": "Healthcare Alternative Systems Inc.", "address": "1866 Milwaukee Ave", "hours": "Not Available", "phone": "Not Available", "type": "Substance Abuse Services"}}, {"type": "Feature", "geometry": {"type": "Point", "coordinates": [-87.90499, 41.975490000000036]}, "properties": {"name": "Haymarket Center-O-Hare Outreach", "address": "66243 Chicago", "hours": "Not Available", "phone": "Not Available", "type": "Substance Abuse Services"}}, {"type": "Feature", "geometry": {"type": "Point", "coordinates": [-87.68277117317399, 41.747178643006464]}, "properties": {"name": "Le Penseur Youth and Family Services, Inc.", "address": "8036 Western Ave", "hours": "Not Available", "phone": "Not Available", "type": "Substance Abuse Services"}}, {"type": "Feature", "geometry": {"type": "Point", "coordinates": [-87.65635484233647, 41.982193678773385]}, "properties": {"name": "Lutheran Social Services of Illinois \u2013 Women's Residence", "address": "5517 Kenmore", "hours": "Not Available", "phone": "Not Available", "type": "Substance Abuse Services"}}, {"type": "Feature", "geometry": {"type": "Point", "coordinates": [-87.74304785078974, 41.888409593720866]}, "properties": {"name": "Habilitative Systems Inc.", "address": "415 Kilpatrick St", "hours": "Not Available", "phone": "Not Available", "type": "Substance Abuse Services"}}, {"type": "Feature", "geometry": {"type": "Point", "coordinates": [-87.79555755681483, 41.79215325043743]}, "properties": {"name": "DUI Community Counseling, Inc.", "address": "6950 Archer Ave", "hours": "Not Available", "phone": "Not Available", "type": "Substance Abuse Services"}}, {"type": "Feature", "geometry": {"type": "Point", "coordinates": [-87.65520467800908, 41.77225778755886]}, "properties": {"name": "HRDI \u2013 Women\u2019s Program Essence House", "address": "1223 Marquette Rd", "hours": "Not Available", "phone": "Not Available", "type": "Substance Abuse Services"}}, {"type": "Feature", "geometry": {"type": "Point", "coordinates": [-87.64980291751327, 41.936293838518154]}, "properties": {"name": "Alexian Brothers Bonaventure House", "address": "825 Wellington St", "hours": "Not Available", "phone": "Not Available", "type": "Substance Abuse Services"}}, {"type": "Feature", "geometry": {"type": "Point", "coordinates": [-87.69718730530366, 41.916961648918004]}, "properties": {"name": "Healthcare Alternative Systems Inc.", "address": "1942 California Ave", "hours": "Not Available", "phone": "Not Available", "type": "Substance Abuse Services"}}, {"type": "Feature", "geometry": {"type": "Point", "coordinates": [-87.6951327218215, 41.838739576099925]}, "properties": {"name": "Healthcare Alternative Systems Inc.", "address": "3026 California Ave", "hours": "Not Available", "phone": "Not Available", "type": "Substance Abuse Services"}}, {"type": "Feature", "geometry": {"type": "Point", "coordinates": [-87.68244598055738, 42.015078518290736]}, "properties": {"name": "A Safe Haven", "address": "2049 Jarvis St", "hours": "Not Available", "phone": "Not Available", "type": "Substance Abuse Services"}}, {"type": "Feature", "geometry": {"type": "Point", "coordinates": [-87.76233419310614, 41.77803438183173]}, "properties": {"name": "The Gate to Recovery  & Alternative Community", "address": "5612 63rd St", "hours": "Not Available", "phone": "Not Available", "type": "Substance Abuse Services"}}, {"type": "Feature", "geometry": {"type": "Point", "coordinates": [-87.65125892926733, 41.88305720841339]}, "properties": {"name": "McDermott Center/Haymarket Center MATER Hall", "address": "932 Washington Blvd", "hours": "Not Available", "phone": "Not Available", "type": "Substance Abuse Services"}}, {"type": "Feature", "geometry": {"type": "Point", "coordinates": [-87.70171988833135, 41.917060574341235]}, "properties": {"name": "Healthcare Alternative Systems Inc. \u2013 Residential", "address": "1949 Humboldt Blvd", "hours": "Not Available", "phone": "Not Available", "type": "Substance Abuse Services"}}, {"type": "Feature", "geometry": {"type": "Point", "coordinates": [-87.6865608330082, 41.883629912134225]}, "properties": {"name": "The Wells Center IYC", "address": "136 Western Ave", "hours": "Not Available", "phone": "Not Available", "type": "Substance Abuse Services"}}, {"type": "Feature", "geometry": {"type": "Point", "coordinates": [-87.80666095539324, 42.017241640932475]}, "properties": {"name": "DUI-Metropolitan Services Inc.", "address": "7506 Harlem Ave", "hours": "Not Available", "phone": "Not Available", "type": "Substance Abuse Services"}}, {"type": "Feature", "geometry": {"type": "Point", "coordinates": [-87.63339839376539, 41.76412187003848]}, "properties": {"name": "Henry\u2019s Sober Living House", "address": "7143 Harvard Ave", "hours": "Not Available", "phone": "Not Available", "type": "Substance Abuse Services"}}, {"type": "Feature", "geometry": {"type": "Point", "coordinates": [-87.614539610811, 41.82024855788711]}, "properties": {"name": "State of Mind Mental Health & Consultations Services PC", "address": "400 41st St", "hours": "Not Available", "phone": "Not Available", "type": "Substance Abuse Services"}}, {"type": "Feature", "geometry": {"type": "Point", "coordinates": [-87.76505913885495, 41.88592604568686]}, "properties": {"name": "Campaign for a Drug-free Westside, Inc.", "address": "300 Central Ave", "hours": "Not Available", "phone": "Not Available", "type": "Substance Abuse Services"}}, {"type": "Feature", "geometry": {"type": "Point", "coordinates": [-87.62974543802676, 41.89855975752733]}, "properties": {"name": "Hazelden Chicago", "address": "867 Dearborn St", "hours": "Not Available", "phone": "Not Available", "type": "Substance Abuse Services"}}, {"type": "Feature", "geometry": {"type": "Point", "coordinates": [-87.63094324462543, 41.76273691411336]}, "properties": {"name": "\u201cN\u201d The Spirit Transformational Living", "address": "7225 Yale Ave", "hours": "Not Available", "phone": "Not Available", "type": "Substance Abuse Services"}}, {"type": "Feature", "geometry": {"type": "Point", "coordinates": [-87.65634328760791, 41.801117296742646]}, "properties": {"name": "Youth Outreach Services", "address": "5114 Elizabeth St", "hours": "Not Available", "phone": "Not Available", "type": "Substance Abuse Services"}}, {"type": "Feature", "geometry": {"type": "Point", "coordinates": [-87.66927815924298, 41.79027482889277]}, "properties": {"name": "Southwood Interventions Women\u2019s Short-term & City Women", "address": "5701 Wood St", "hours": "Not Available", "phone": "Not Available", "type": "Substance Abuse Services"}}, {"type": "Feature", "geometry": {"type": "Point", "coordinates": [-87.72949994581643, 41.88068299825602]}, "properties": {"name": "Garfield Counseling Center Inc.", "address": "4132 Madison St", "hours": "Not Available", "phone": "Not Available", "type": "Substance Abuse Services"}}, {"type": "Feature", "geometry": {"type": "Point", "coordinates": [-87.65096580330675, 41.88334691324832]}, "properties": {"name": "McDermott Center/Haymarket Center IOP", "address": "108 Sangamon St", "hours": "Not Available", "phone": "Not Available", "type": "Substance Abuse Services"}}, {"type": "Feature", "geometry": {"type": "Point", "coordinates": [-87.60053927346164, 41.81735944565127]}, "properties": {"name": "Komed/Holman Health Center", "address": "4259 Berkeley", "hours": "Not Available", "phone": "Not Available", "type": "Substance Abuse Services"}}, {"type": "Feature", "geometry": {"type": "Point", "coordinates": [-87.72892150039317, 41.99718958035763]}, "properties": {"name": "Bilingual DUI Counseling & Clinical Services Inc.", "address": "4001 Devon Ave", "hours": "Not Available", "phone": "Not Available", "type": "Substance Abuse Services"}}, {"type": "Feature", "geometry": {"type": "Point", "coordinates": [-87.70609804113444, 41.87009657385446]}, "properties": {"name": "Safer Foundation Crossroads A.T.C.", "address": "3210 Arthington St", "hours": "Not Available", "phone": "Not Available", "type": "Substance Abuse Services"}}, {"type": "Feature", "geometry": {"type": "Point", "coordinates": [-87.66115999999994, 41.971839999999986]}, "properties": {"name": "Asian Human Services, Inc.", "address": "4753 BRdway", "hours": "Not Available", "phone": "Not Available", "type": "Substance Abuse Services"}}, {"type": "Feature", "geometry": {"type": "Point", "coordinates": [-87.56872445520536, 41.74962249661854]}, "properties": {"name": "South Shore Hospital Medical Detox", "address": "8012 Crandon Ave", "hours": "Not Available", "phone": "Not Available", "type": "Substance Abuse Services"}}, {"type": "Feature", "geometry": {"type": "Point", "coordinates": [-87.68490111154657, 41.76472527925688]}, "properties": {"name": "Ada S. McKinley", "address": "2454 71st St", "hours": "Not Available", "phone": "Not Available", "type": "Substance Abuse Services"}}, {"type": "Feature", "geometry": {"type": "Point", "coordinates": [-87.73405051528465, 41.90920049980514]}, "properties": {"name": "Gateway Foundation Alcohol & Drug Treatment/Chicago Northwest", "address": "4301 Grand Ave", "hours": "Not Available", "phone": "Not Available", "type": "Substance Abuse Services"}}, {"type": "Feature", "geometry": {"type": "Point", "coordinates": [-87.65461340043657, 41.95698147922184]}, "properties": {"name": "DUI Rehabilitation Center Inc.", "address": "4108 Sheridan Rd", "hours": "Not Available", "phone": "Not Available", "type": "Substance Abuse Services"}}, {"type": "Feature", "geometry": {"type": "Point", "coordinates": [-87.58825242789453, 41.79956415121319]}, "properties": {"name": "Indiana Avenue DUI Service", "address": "1525 53rd St", "hours": "Not Available", "phone": "Not Available", "type": "Substance Abuse Services"}}, {"type": "Feature", "geometry": {"type": "Point", "coordinates": [-87.68448887824997, 41.81102151386648]}, "properties": {"name": "Healthcare Alternative Systems Inc.", "address": "4534 Western Ave", "hours": "Not Available", "phone": "Not Available", "type": "Substance Abuse Services"}}, {"type": "Feature", "geometry": {"type": "Point", "coordinates": [-87.61032179049357, 41.76253007004664]}, "properties": {"name": "Hardin House", "address": "7249 Saint Lawrence Ave", "hours": "Not Available", "phone": "Not Available", "type": "Substance Abuse Services"}}, {"type": "Feature", "geometry": {"type": "Point", "coordinates": [-87.70662316075853, 41.89560700223869]}, "properties": {"name": "Louise Landau Health Center      Near North Center", "address": "800 Kedzie Ave", "hours": "Not Available", "phone": "Not Available", "type": "Substance Abuse Services"}}, {"type": "Feature", "geometry": {"type": "Point", "coordinates": [-87.64451401404756, 41.76898720221698]}, "properties": {"name": "Sky is the Limit Recovery Facilities Inc., NFP", "address": "6857 Halsted St", "hours": "Not Available", "phone": "Not Available", "type": "Substance Abuse Services"}}, {"type": "Feature", "geometry": {"type": "Point", "coordinates": [-87.69732954741238, 41.868241993295115]}, "properties": {"name": "Safer Foundation/North Lawndale ATC    ", "address": "2839 Fillmore St", "hours": "Not Available", "phone": "Not Available", "type": "Substance Abuse Services"}}, {"type": "Feature", "geometry": {"type": "Point", "coordinates": [-87.65893362327762, 41.91773902388309]}, "properties": {"name": "Anixter Center Addiction Recovery for the Deaf", "address": "2001 Clybourn Ave", "hours": "Not Available", "phone": "Not Available", "type": "Substance Abuse Services"}}, {"type": "Feature", "geometry": {"type": "Point", "coordinates": [-87.74997750842357, 41.89310263548066]}, "properties": {"name": "Ashunti Residential Management Systems, Inc.", "address": "4944 Huron St", "hours": "Not Available", "phone": "Not Available", "type": "Substance Abuse Services"}}, {"type": "Feature", "geometry": {"type": "Point", "coordinates": [-87.65369609196671, 41.74856359893158]}, "properties": {"name": "HRDI \u2013 BRASS II", "address": "8000 Racine Ave", "hours": "Not Available", "phone": "Not Available", "type": "Substance Abuse Services"}}, {"type": "Feature", "geometry": {"type": "Point", "coordinates": [-87.74729334082684, 41.95072611202765]}, "properties": {"name": "Polish American Association Starting Point", "address": "3834 Cicero Ave", "hours": "Not Available", "phone": "Not Available", "type": "Substance Abuse Services"}}, {"type": "Feature", "geometry": {"type": "Point", "coordinates": [-87.67857903352147, 41.94680875505363]}, "properties": {"name": "Intervention Instruction, Inc.", "address": "2001 Addison", "hours": "Not Available", "phone": "Not Available", "type": "Substance Abuse Services"}}, {"type": "Feature", "geometry": {"type": "Point", "coordinates": [-87.66619986921974, 42.00740242766424]}, "properties": {"name": "GW & Associates A Wellness Organization", "address": "6924 Glenwood Ave", "hours": "Not Available", "phone": "Not Available", "type": "Substance Abuse Services"}}, {"type": "Feature", "geometry": {"type": "Point", "coordinates": [-87.72289892212137, 41.7847523173906]}, "properties": {"name": "DUI Alternatives Treatment Center, Inc.", "address": "5935 Pulaski Rd", "hours": "Not Available", "phone": "Not Available", "type": "Substance Abuse Services"}}, {"type": "Feature", "geometry": {"type": "Point", "coordinates": [-87.56756335223437, 41.7164389525862]}, "properties": {"name": "HRDI \u2013 Chicago Girls Program", "address": "2311 98th St", "hours": "Not Available", "phone": "Not Available", "type": "Substance Abuse Services"}}, {"type": "Feature", "geometry": {"type": "Point", "coordinates": [-87.70218516474658, 41.78610155401181]}, "properties": {"name": "Alliance Behavioral Services Inc.", "address": "5906 Troy St", "hours": "Not Available", "phone": "Not Available", "type": "Substance Abuse Services"}}, {"type": "Feature", "geometry": {"type": "Point", "coordinates": [-87.72383421703182, 41.84427844250996]}, "properties": {"name": "Access Behavioral Services, Inc.", "address": "3948 26th St", "hours": "Not Available", "phone": "Not Available", "type": "Substance Abuse Services"}}, {"type": "Feature", "geometry": {"type": "Point", "coordinates": [-87.69499295955217, 41.99046323837268]}, "properties": {"name": "Latino Treatment Center Chicago", "address": "2608 Petersen Ave", "hours": "Not Available", "phone": "Not Available", "type": "Substance Abuse Services"}}, {"type": "Feature", "geometry": {"type": "Point", "coordinates": [-87.70218999999997, 41.92115000000007]}, "properties": {"name": "Jack Clarks Family Recovering Community Inc.", "address": "2915 2917 W Armitage St", "hours": "Not Available", "phone": "Not Available", "type": "Substance Abuse Services"}}, {"type": "Feature", "geometry": {"type": "Point", "coordinates": [-87.76530195580284, 41.892437137179]}, "properties": {"name": "Loretto Hospital", "address": "645 Central Ave", "hours": "Not Available", "phone": "Not Available", "type": "Substance Abuse Services"}}, {"type": "Feature", "geometry": {"type": "Point", "coordinates": [-87.68122433928357, 41.85758840854362]}, "properties": {"name": "HRDI \u2013 Near West", "address": "2207 18th St", "hours": "Not Available", "phone": "Not Available", "type": "Substance Abuse Services"}}, {"type": "Feature", "geometry": {"type": "Point", "coordinates": [-87.65547674958475, 41.76229624631901]}, "properties": {"name": "Elite House of Sober Living, Inc", "address": "1236 72nd Pl", "hours": "Not Available", "phone": "Not Available", "type": "Substance Abuse Services"}}, {"type": "Feature", "geometry": {"type": "Point", "coordinates": [-87.706795718495, 41.90152511582621]}, "properties": {"name": "Association House of Chicago", "address": "1116 Kedzie Ave", "hours": "Not Available", "phone": "Not Available", "type": "Substance Abuse Services"}}, {"type": "Feature", "geometry": {"type": "Point", "coordinates": [-87.62557641139145, 41.86125169095953]}, "properties": {"name": "Mercy Housing Lakefront/South Loop Apartments", "address": "1521 Wabash Ave", "hours": "Not Available", "phone": "Not Available", "type": "Substance Abuse Services"}}, {"type": "Feature", "geometry": {"type": "Point", "coordinates": [-87.60343650923532, 41.77432293660677]}, "properties": {"name": "Henry\u2019s Sober Living House", "address": "6634 Drexel", "hours": "Not Available", "phone": "Not Available", "type": "Substance Abuse Services"}}, {"type": "Feature", "geometry": {"type": "Point", "coordinates": [-87.68805023117436, 41.96799144727349]}, "properties": {"name": "Avance Inc.", "address": "4765 Lincoln Ave", "hours": "Not Available", "phone": "Not Available", "type": "Substance Abuse Services"}}, {"type": "Feature", "geometry": {"type": "Point", "coordinates": [-87.621170035909, 41.7510567153199]}, "properties": {"name": "Emages, Inc.", "address": "110 79th", "hours": "Not Available", "phone": "Not Available", "type": "Substance Abuse Services"}}, {"type": "Feature", "geometry": {"type": "Point", "coordinates": [-87.71296947565615, 41.93191571233773]}, "properties": {"name": "DUI Counseling Center At The Diversey Kimball Building", "address": "3411 Diversey Ave", "hours": "Not Available", "phone": "Not Available", "type": "Substance Abuse Services"}}, {"type": "Feature", "geometry": {"type": "Point", "coordinates": [-87.62454995441514, 41.88199849964541]}, "properties": {"name": "Wendy Stebbins Counseling Centers", "address": "8 Michigan Ave", "hours": "Not Available", "phone": "Not Available", "type": "Substance Abuse Services"}}, {"type": "Feature", "geometry": {"type": "Point", "coordinates": [-87.64444214580742, 41.88563739917868]}, "properties": {"name": "Central States Institute of Addiction", "address": "651 Lake St", "hours": "Not Available", "phone": "Not Available", "type": "Substance Abuse Services"}}, {"type": "Feature", "geometry": {"type": "Point", "coordinates": [-87.65481125128304, 41.968429848654864]}, "properties": {"name": "Heartland Health Outreach Pathways Home Outpatient", "address": "4750 Sheridan Rd", "hours": "Not Available", "phone": "Not Available", "type": "Substance Abuse Services"}}, {"type": "Feature", "geometry": {"type": "Point", "coordinates": [-87.65913, 41.95436000000001]}, "properties": {"name": "American Indian Health Services", "address": "4081 BRdway St", "hours": "Not Available", "phone": "Not Available", "type": "Substance Abuse Services"}}, {"type": "Feature", "geometry": {"type": "Point", "coordinates": [-87.58939136941076, 41.77687090411069]}, "properties": {"name": "Woodlawn Organization Substance Abuse Services/Entry House", "address": "1447 65th St", "hours": "Not Available", "phone": "Not Available", "type": "Substance Abuse Services"}}, {"type": "Feature", "geometry": {"type": "Point", "coordinates": [-87.60267546778017, 41.65909562521194]}, "properties": {"name": "TCA Health Inc.", "address": "1029 130th St", "hours": "Not Available", "phone": "Not Available", "type": "Substance Abuse Services"}}, {"type": "Feature", "geometry": {"type": "Point", "coordinates": [-87.7153127629121, 41.86607272060229]}, "properties": {"name": "Hope House of Chicago, INC.", "address": "1207 Central Park Ave", "hours": "Not Available", "phone": "Not Available", "type": "Substance Abuse Services"}}, {"type": "Feature", "geometry": {"type": "Point", "coordinates": [-87.67917724294068, 41.882256032261914]}, "properties": {"name": "St. Leonard\u2019s Ministries", "address": "2100 Warren Blvd", "hours": "Not Available", "phone": "Not Available", "type": "Substance Abuse Services"}}, {"type": "Feature", "geometry": {"type": "Point", "coordinates": [-87.65096580330675, 41.88334691324832]}, "properties": {"name": "McDermott Center/Haymarket Center MISA", "address": "108 Sangamon St", "hours": "Not Available", "phone": "Not Available", "type": "Substance Abuse Services"}}, {"type": "Feature", "geometry": {"type": "Point", "coordinates": [-87.65078228859176, 41.87966676436292]}, "properties": {"name": "McDermott Center/Haymarket", "address": "120 Sangamon St", "hours": "Not Available", "phone": "Not Available", "type": "Substance Abuse Services"}}, {"type": "Feature", "geometry": {"type": "Point", "coordinates": [-87.73108275258795, 41.88693328635969]}, "properties": {"name": "Hand-n-Hand Outreach Not for Profit", "address": "4207 Carroll Ave", "hours": "Not Available", "phone": "Not Available", "type": "Substance Abuse Services"}}, {"type": "Feature", "geometry": {"type": "Point", "coordinates": [-87.6341259712158, 41.89664411742152]}, "properties": {"name": "Center for Addictive Problems", "address": "609 Wells St", "hours": "Not Available", "phone": "Not Available", "type": "Substance Abuse Services"}}, {"type": "Feature", "geometry": {"type": "Point", "coordinates": [-87.67266988863483, 42.00905080426533]}, "properties": {"name": "Lutheran Social Services", "address": "1710 Lunt Ave", "hours": "Not Available", "phone": "Not Available", "type": "Substance Abuse Services"}}, {"type": "Feature", "geometry": {"type": "Point", "coordinates": [-87.67360873216133, 41.94909423004712]}, "properties": {"name": "Magnolia House Counseling Center", "address": "3717 Ravenswood Ave", "hours": "Not Available", "phone": "Not Available", "type": "Substance Abuse Services"}}, {"type": "Feature", "geometry": {"type": "Point", "coordinates": [-87.65635484233647, 41.982193678773385]}, "properties": {"name": "Lutheran Social Services of Illinois \u2013 North Kenmore Outpatient", "address": "5517 Kenmore", "hours": "Not Available", "phone": "Not Available", "type": "Substance Abuse Services"}}, {"type": "Feature", "geometry": {"type": "Point", "coordinates": [-87.65662967912286, 41.96440388215173]}, "properties": {"name": "Sundance Methadone Treatment Center", "address": "4545 Broadway", "hours": "Not Available", "phone": "Not Available", "type": "Substance Abuse Services"}}, {"type": "Feature", "geometry": {"type": "Point", "coordinates": [-87.68862294909326, 41.883534381835766]}, "properties": {"name": "Community Counseling Centers of Chgo. Westside Adult", "address": "121 Campbell Ave", "hours": "Not Available", "phone": "Not Available", "type": "Substance Abuse Services"}}, {"type": "Feature", "geometry": {"type": "Point", "coordinates": [-87.61823296238566, 41.80214606889609]}, "properties": {"name": "HRDI \u2013 Brass I", "address": "340 51st St", "hours": "Not Available", "phone": "Not Available", "type": "Substance Abuse Services"}}, {"type": "Feature", "geometry": {"type": "Point", "coordinates": [-87.66927815924298, 41.79027482889277]}, "properties": {"name": "Southwood Interventions", "address": "5701 Wood St", "hours": "Not Available", "phone": "Not Available", "type": "Substance Abuse Services"}}, {"type": "Feature", "geometry": {"type": "Point", "coordinates": [-87.63708561408555, 41.76465247003574]}, "properties": {"name": "Y.A.N.A. House ", "address": "7120 Normal Blvd", "hours": "Not Available", "phone": "Not Available", "type": "Substance Abuse Services"}}, {"type": "Feature", "geometry": {"type": "Point", "coordinates": [-87.6333390385115, 41.778161150374615]}, "properties": {"name": "People Overwhelmed, Inc. ", "address": "326 64th St", "hours": "Not Available", "phone": "Not Available", "type": "Substance Abuse Services"}}, {"type": "Feature", "geometry": {"type": "Point", "coordinates": [-87.66689813935682, 41.88446015077909]}, "properties": {"name": "Women\u2019s Treatment Center", "address": "140 Ashland Ave", "hours": "Not Available", "phone": "Not Available", "type": "Substance Abuse Services"}}, {"type": "Feature", "geometry": {"type": "Point", "coordinates": [-87.685394, 41.848583]}, "properties": {"name": "Alivio Medical Center", "address": "2355 S. Western Ave.", "hours": "Mon, Tues, Thurs & Fri: 8:00 a.m. - 4:30 p.m.; Wed: 10:30 a.m. - 7:00 p.m.", "phone": "773-843-4220", "type": "Women-Infant-Children Clinic"}}, {"type": "Feature", "geometry": {"type": "Point", "coordinates": [-87.653223, 41.85415]}, "properties": {"name": "Alivio Medical Center - Morgan", "address": "966 W. 21st St.", "hours": "Mon - Fri: 8:30 a.m. \u2013 2:00 p.m.", "phone": "312-829-6838", "type": "Women-Infant-Children Clinic"}}, {"type": "Feature", "geometry": {"type": "Point", "coordinates": [-87.690739, 41.990601]}, "properties": {"name": "Asian Human Services Family Health Center, Inc.", "address": "2424 W. Peterson Ave.", "hours": "Mon, Wed, Thurs & Fri: 9:00 a.m. - 5:00 p.m.; Tues: 11:00 a.m. - 7:00 p.m.", "phone": "773-761-2324", "type": "Women-Infant-Children Clinic"}}, {"type": "Feature", "geometry": {"type": "Point", "coordinates": [-87.748845, 41.902212]}, "properties": {"name": "Austin Clinic", "address": "4909 W. Division St.", "hours": "Mon - Fri: 8:00 a.m. - 4:00 p.m.", "phone": "312-746-4797", "type": "Women-Infant-Children Clinic"}}, {"type": "Feature", "geometry": {"type": "Point", "coordinates": [-87.552478, 41.729457]}, "properties": {"name": "Chicago Family Health Center", "address": "9119 S. Exchange Ave.", "hours": "Mon - Fri: 8:00 a.m. - 4:00 p.m.", "phone": "773-768-0373 ext. 1180, 1181, 1182", "type": "Women-Infant-Children Clinic"}}, {"type": "Feature", "geometry": {"type": "Point", "coordinates": [-87.641428, 41.779692]}, "properties": {"name": "Englewood NHC", "address": "641 W. 63rd St.", "hours": "Mon, Wed & Fri: 8:00 a.m. - 4:00 p.m.; Tues & Thurs: 9:00 a.m. - 5:00 p.m.", "phone": "312-747-4814", "type": "Women-Infant-Children Clinic"}}, {"type": "Feature", "geometry": {"type": "Point", "coordinates": [-87.68778, 41.903118]}, "properties": {"name": "Erie Health Center ", "address": "2418 W. Division St.", "hours": "Mon, Wed & Fri: 8:00 a.m. - 4:00 p.m.; Tues & Thurs: 10:00 a.m. - 6:00 p.m.", "phone": "312-744-8118", "type": "Women-Infant-Children Clinic"}}, {"type": "Feature", "geometry": {"type": "Point", "coordinates": [-87.669813, 41.895006]}, "properties": {"name": "Erie Health Center ", "address": "1701 W. Superior St.", "hours": "Mon, Tues, Thurs & Fri: 8:30 a.m. - 5:00 p.m.; Wed: 10:00 a.m. - 5:00 p.m.", "phone": "312-432-7372 ", "type": "Women-Infant-Children Clinic"}}, {"type": "Feature", "geometry": {"type": "Point", "coordinates": [-87.606097, 41.795075]}, "properties": {"name": "Friend Family Health Center Inc.", "address": "800 E. 55th St.", "hours": "Mon - Fri: 8:00 a.m. - 4:00 p.m.", "phone": "773-702-3719", "type": "Women-Infant-Children Clinic"}}, {"type": "Feature", "geometry": {"type": "Point", "coordinates": [-87.727664, 41.793275]}, "properties": {"name": "Greater Lawn Health Center", "address": "4150 W. 55th St.", "hours": "Mon - Fri: 8:00 a.m. - 4:00 p.m.", "phone": "312-747-5415", "type": "Women-Infant-Children Clinic"}}, {"type": "Feature", "geometry": {"type": "Point", "coordinates": [-87.625083, 41.841693]}, "properties": {"name": "Henry Booth House", "address": "2907 S. Wabash", "hours": "Mon - Fri: 9:00 a.m. - 5:00 p.m.; Sat: 9:00 a.m. - 4:00 p.m.", "phone": "312-225-1982 ", "type": "Women-Infant-Children Clinic"}}, {"type": "Feature", "geometry": {"type": "Point", "coordinates": [-87.666013, 41.858282]}, "properties": {"name": "Lower West Side NHC", "address": "1713 S. Ashland Ave.", "hours": "Mon - Fri: 8:00 a.m. - 4:00 p.m.", "phone": "312-743-0600", "type": "Women-Infant-Children Clinic"}}, {"type": "Feature", "geometry": {"type": "Point", "coordinates": [-87.65176, 41.965367]}, "properties": {"name": "Uptown NHC", "address": "845 W. Wilson Ave.", "hours": "Mon, Wed & Fri :8:00 a.m. - 4:00 p.m.; Tues & Thurs: 9:00 a.m. - 5:00 p.m.", "phone": "312-744-0073", "type": "Women-Infant-Children Clinic"}}, {"type": "Feature", "geometry": {"type": "Point", "coordinates": [-87.705295, 41.84805]}, "properties": {"name": "Westside Health Partnership", "address": "2400 S. Kedzie Ave.", "hours": "Mon - Fri: 8:00 a.m. - 4:00 p.m.", "phone": "773-542-0288", "type": "Women-Infant-Children Clinic"}}, {"type": "Feature", "geometry": {"type": "Point", "coordinates": [-87.627515, 41.877397]}, "properties": {"name": "WIC Main Office", "address": "333 S. State St., 2nd Floor", "hours": "Mon - Fri: 8:00 a.m. - 4:00 p.m.", "phone": "312-747-9140 ", "type": "Women-Infant-Children Clinic"}}, {"type": "Feature", "geometry": {"type": "Point", "coordinates": [-87.748845, 41.902212]}, "properties": {"name": "Austin STI Specialty Clinic", "address": "4909 W. Division St., Suite 411", "hours": "Mon and Wed: 8:00 a.m. - 4:00 p.m.; Tues: 9:00 a.m. - 5:00 p.m.", "phone": "312-746-4871", "type": "STI Clinic"}}, {"type": "Feature", "geometry": {"type": "Point", "coordinates": [-87.641428, 41.779692]}, "properties": {"name": "Englewood STI Specialty Clinic", "address": "641 W. 63rd St., Lower Level", "hours": "Mon, Wed & Fri: 8:00 a.m. - 4:00 p.m.; Tues & Thurs: 9:00 a.m. - 5:00 p.m.", "phone": "312-747-8900", "type": "STI Clinic"}}, {"type": "Feature", "geometry": {"type": "Point", "coordinates": [-87.645982, 41.934367]}, "properties": {"name": "Lakeview STI Specialty Clinic", "address": "2861 N. Clark, 2nd Floor", "hours": "Mon, Wed & Fri: 8:00 a.m. - 4:00 p.m.; Tues &Thurs: 10:00 a.m. - 6:00 p.m.", "phone": "312-744-5507", "type": "STI Clinic"}}, {"type": "Feature", "geometry": {"type": "Point", "coordinates": [-87.61799, 41.685486]}, "properties": {"name": "Roseland  STI Specialty Clinic", "address": "200 E. 115th St.", "hours": "Mon: 8:00 a.m. - 4:00 p.m.; Thurs: 9:00 a.m. - 5:00 p.m.", "phone": "312-747-2831", "type": "STI Clinic"}}]}