{"type": "FeatureCollection", "crs": {"type": "name", "properties": {"name": "urn:ogc:def:crs:OGC:1.3:CRS84"}}, "features": [{"type": "Feature", "geometry": {"type": "Point", "coordinates": [-87.703294320756, 41.781976295716]}, "properties": {"name": "Chicago Lawn", "address": "6120 Kedzie Ave", "hours": "M, W: 10am-6pm;  Tu, Th: 12pm-8pm; F, Sa: 9am-5pm; Su: Closed", "phone": "(312) 747-0639"}}, {"type": "Feature", "geometry": {"type": "Point", "coordinates": [-87.654442529251, 41.86943247967]}, "properties": {"name": "Roosevelt", "address": "1101 Taylor St", "hours": "M, W: 12pm-8pm; Tu, Th: 10am-6pm; F, Sa: 9am-5pm; Su: Closed", "phone": "(312) 746-5656"}}, {"type": "Feature", "geometry": {"type": "Point", "coordinates": [-87.585878217737, 41.746342273519]}, "properties": {"name": "Avalon", "address": "8148 Stony Island Ave", "hours": "M, W: 12pm-8pm; Tu, Th: 10am-6pm; F, Sa: 9am-5pm; Su: Closed", "phone": "(312) 747-5234"}}, {"type": "Feature", "geometry": {"type": "Point", "coordinates": [-87.567606260854, 41.708010995084]}, "properties": {"name": "District 4", "address": "2255 103rd St", "hours": "Open Saturday And Sunday", "phone": "(312) 747-7581"}}, {"type": "Feature", "geometry": {"type": "Point", "coordinates": [-87.606697522715, 41.816273554518]}, "properties": {"name": "King Center", "address": "4314 Cottage Grove Ave", "hours": "Mon - Fri 9:00 A.M. To 5:00 P.M.", "phone": "311"}}, {"type": "Feature", "geometry": {"type": "Point", "coordinates": [-87.705112913396, 41.849672638623]}, "properties": {"name": "Little Village", "address": "2311 Kedzie Ave", "hours": "M, W: 10am-6pm;  Tu, Th: 12pm-8pm; F, Sa: 9am-5pm; Su: Closed", "phone": "(312) 745-1862"}}, {"type": "Feature", "geometry": {"type": "Point", "coordinates": [-87.781792934154, 41.776696025249]}, "properties": {"name": "Clearing", "address": "6423 63rd Place", "hours": "M, W: 12pm-8pm; Tu, Th: 10am-6pm; F, Sa: 9am-5pm; Su: Closed", "phone": "(312) 747-5657"}}, {"type": "Feature", "geometry": {"type": "Point", "coordinates": [-87.657186052803, 41.880292540229]}, "properties": {"name": "District 12", "address": "100 Racine Ave", "hours": "Open Saturday And Sunday", "phone": "(312) 746-8309"}}, {"type": "Feature", "geometry": {"type": "Point", "coordinates": [-87.626455627699, 41.828144605304]}, "properties": {"name": "Chicago Bee", "address": "3647 State St", "hours": "M, W: 12pm-8pm; Tu, Th: 10am-6pm; F, Sa: 9am-5pm; Su: Closed", "phone": "(312) 747-6872"}}, {"type": "Feature", "geometry": {"type": "Point", "coordinates": [-87.627724810386, 41.876895532792]}, "properties": {"name": "Harold Washington-HWLC", "address": "400 State St", "hours": "M-th: 9am-9pm; F, Sa: 9am-5pm; Su: 1pm-5pm", "phone": "(312) 747-4300"}}, {"type": "Feature", "geometry": {"type": "Point", "coordinates": [-87.702155026949, 41.738365456793]}, "properties": {"name": "Wrightwood-Ashburn", "address": "8530 Kedzie Ave", "hours": "M, W: 12pm-8pm; Tu, Th: 10am-6pm; F, Sa: 9am-5pm; Su: Closed", "phone": "(312) 747-2696"}}, {"type": "Feature", "geometry": {"type": "Point", "coordinates": [-87.660789876864, 41.990942289427]}, "properties": {"name": "Edgewater", "address": "1210 Elmdale Ave", "hours": "M: Closed; Tu-th: 10am-6pm; F, Sa: 9am-5pm; Su: Closed; ", "phone": "(312) 744-0718"}}, {"type": "Feature", "geometry": {"type": "Point", "coordinates": [-87.668146107172, 41.779344520875]}, "properties": {"name": "West Englewood", "address": "1745 63rd St", "hours": "M, W: 12pm-8pm; Tu, Th: 10am-6pm; F, Sa: 9am-5pm; Su: Closed", "phone": "(312) 747-3481"}}, {"type": "Feature", "geometry": {"type": "Point", "coordinates": [-87.66122498708, 41.857820778175]}, "properties": {"name": "Lozano", "address": "1805 Loomis St", "hours": "M, W: 10am-6pm;  Tu, Th: 12pm-8pm; F, Sa: 9am-5pm; Su: Closed", "phone": "(312) 746-4329"}}, {"type": "Feature", "geometry": {"type": "Point", "coordinates": [-87.653982260573, 41.757451722089]}, "properties": {"name": "Thurgood Marshall", "address": "7506 Racine Ave", "hours": "M, W: 12pm-8pm; Tu, Th: 10am-6pm; F, Sa: 9am-5pm; Su: Closed", "phone": "(312) 747-5927"}}, {"type": "Feature", "geometry": {"type": "Point", "coordinates": [-87.668498787512, 41.691375104539]}, "properties": {"name": "District 22", "address": "1900 Monterey Ave", "hours": "Open Saturday And Sunday", "phone": "(312) 745-0710"}}, {"type": "Feature", "geometry": {"type": "Point", "coordinates": [-87.605464619662, 41.692768796775]}, "properties": {"name": "District 5", "address": "727 111th St", "hours": "Open Saturday And Sunday", "phone": "(312) 747-8210"}}, {"type": "Feature", "geometry": {"type": "Point", "coordinates": [-87.703419606967, 41.924785750573]}, "properties": {"name": "Logan Square", "address": "3030 Fullerton Ave", "hours": "M, W: 10am-6pm;  Tu, Th: 12pm-8pm; F, Sa: 9am-5pm; Su: Closed", "phone": "(312) 744-5295"}}, {"type": "Feature", "geometry": {"type": "Point", "coordinates": [-87.589114605823, 41.805498563171]}, "properties": {"name": "Blackstone", "address": "4904 Lake Park Ave", "hours": "M, W: 12pm-8pm; Tu, Th: 10am-6pm; F, Sa: 9am-5pm; Su: Closed", "phone": "(312) 747-0511"}}, {"type": "Feature", "geometry": {"type": "Point", "coordinates": [-87.702669516901, 41.815124935655]}, "properties": {"name": "Brighton Park", "address": "4314 Archer Ave", "hours": "M, W: 10am-6pm;  Tu, Th: 12pm-8pm; F, Sa: 9am-5pm; Su: Closed", "phone": "(312) 747-0666"}}, {"type": "Feature", "geometry": {"type": "Point", "coordinates": [-87.724526694994, 41.842057117098]}, "properties": {"name": "Toman", "address": "2708 Pulaski Rd", "hours": "M, W: 12pm-8pm; Tu, Th: 10am-6pm; F, Sa: 9am-5pm; Su: Closed", "phone": "(312) 745-1660"}}, {"type": "Feature", "geometry": {"type": "Point", "coordinates": [-87.637468750753, 41.78234349533]}, "properties": {"name": "Kelly", "address": "6151 Normal Blvd", "hours": "M, W: 10am-6pm;  Tu, Th: 12pm-8pm; F, Sa: 9am-5pm; Su: Closed", "phone": "(312) 747-8418"}}, {"type": "Feature", "geometry": {"type": "Point", "coordinates": [-87.654887232778, 41.968003546532]}, "properties": {"name": "North Area Center", "address": "4740 Sheridan Rd", "hours": "Mon - Fri 9:00 A.M. To 5:00 P.M.", "phone": "311"}}, {"type": "Feature", "geometry": {"type": "Point", "coordinates": [-87.654973222955, 41.79522560459]}, "properties": {"name": "Sherman Park", "address": "5440 Racine Ave", "hours": "M, W: 12pm-8pm; Tu, Th: 10am-6pm; F, Sa: 9am-5pm; Su: Closed", "phone": "(312) 747-0477"}}, {"type": "Feature", "geometry": {"type": "Point", "coordinates": [-87.768867460517, 41.909385967328]}, "properties": {"name": "North Austin", "address": "5724 North Ave", "hours": "M, W: 12pm-8pm; Tu, Th: 10am-6pm; F, Sa: 9am-5pm; Su: Closed", "phone": "(312) 746-4233"}}, {"type": "Feature", "geometry": {"type": "Point", "coordinates": [-87.643056534378, 41.720961701396]}, "properties": {"name": "Woodson Regional", "address": "9525 Halsted St", "hours": "M-th: 9am-9pm; F, Sa: 9am-5pm; Su: 1pm-5pm", "phone": "(312) 747-6900"}}, {"type": "Feature", "geometry": {"type": "Point", "coordinates": [-87.650960732323, 41.947345080718]}, "properties": {"name": "District 19", "address": "850 Addison St", "hours": "Open Saturday And Sunday", "phone": "(312) 744-8320"}}, {"type": "Feature", "geometry": {"type": "Point", "coordinates": [-87.724361248113, 41.749352804211]}, "properties": {"name": "Scottsdale", "address": "4101 79th St", "hours": "M, W: 10am-6pm;  Tu, Th: 12pm-8pm; F, Sa: 9am-5pm; Su: Closed", "phone": "(312) 747-0193"}}, {"type": "Feature", "geometry": {"type": "Point", "coordinates": [-87.797287844088, 41.921096092371]}, "properties": {"name": "Galewood-Mont Clare", "address": "6871 Belden Ave", "hours": "M-th: 10am-6pm; F: 9am-5pm; Sa, Su: Closed", "phone": "(312) 746-0165"}}, {"type": "Feature", "geometry": {"type": "Point", "coordinates": [-87.605654220377, 41.766487809915]}, "properties": {"name": "District 3", "address": "7040 Cottage Grove Ave", "hours": "Open Saturday And Sunday", "phone": "(312) 747-8201"}}, {"type": "Feature", "geometry": {"type": "Point", "coordinates": [-87.692753647699, 41.979680367241]}, "properties": {"name": "District 20", "address": "5400 Lincoln Ave", "hours": "Open Saturday And Sunday", "phone": "(312) 742-8714"}}, {"type": "Feature", "geometry": {"type": "Point", "coordinates": [-87.768332671042, 41.880161391479]}, "properties": {"name": "District 15", "address": "5701 Madison St", "hours": "Open Saturday And Sunday", "phone": "(312) 743-1440"}}, {"type": "Feature", "geometry": {"type": "Point", "coordinates": [-87.700910498505, 41.692985497521]}, "properties": {"name": "Mount Greenwood", "address": "11010 Kedzie Ave", "hours": "M, W: 10am-6pm;  Tu, Th: 12pm-8pm; F, Sa: 9am-5pm; Su: Closed", "phone": "(312) 747-2805"}}, {"type": "Feature", "geometry": {"type": "Point", "coordinates": [-87.679074709073, 41.870607218318]}, "properties": {"name": "Central West", "address": "2102 Ogden Ave", "hours": "Mon - Fri 8:30 A.M. To 4:30 P.M. ", "phone": "(312) 746-5300"}}, {"type": "Feature", "geometry": {"type": "Point", "coordinates": [-87.673362576821, 42.006781595899]}, "properties": {"name": "Rogers Park", "address": "6907 Clark St", "hours": "M, W: 12pm-8pm; Tu, Th: 10am-6pm; F, Sa: 9am-5pm; Su: Closed", "phone": "(312) 744-0156"}}, {"type": "Feature", "geometry": {"type": "Point", "coordinates": [-87.653499289251, 41.958378193684]}, "properties": {"name": "Uptown", "address": "929 Buena Ave", "hours": "M, W: 10am-6pm;  Tu, Th: 12pm-8pm; F, Sa: 9am-5pm; Su: Closed", "phone": "(312) 744-8400"}}, {"type": "Feature", "geometry": {"type": "Point", "coordinates": [-87.673430993183, 41.830351580058]}, "properties": {"name": "McKinley Park", "address": "1915 35th St", "hours": "M, W: 12pm-8pm; Tu, Th: 10am-6pm; F, Sa: 9am-5pm; Su: Closed", "phone": "(312) 747-6082"}}, {"type": "Feature", "geometry": {"type": "Point", "coordinates": [-87.761721768496, 41.967562324592]}, "properties": {"name": "Jefferson Park", "address": "5363 Lawrence Ave", "hours": "M, W: 10am-6pm;  Tu, Th: 12pm-8pm; F, Sa: 9am-5pm; Su: Closed", "phone": "(312) 744-1998"}}, {"type": "Feature", "geometry": {"type": "Point", "coordinates": [-87.630635163816, 41.80181236132]}, "properties": {"name": "District 2", "address": "5101 Wentworth Ave", "hours": "Open Saturday And Sunday", "phone": "(312) 747-8366"}}, {"type": "Feature", "geometry": {"type": "Point", "coordinates": [-87.565418641571, 41.713490039789]}, "properties": {"name": "Jeffery Manor", "address": "2401 100th St", "hours": "M, W: 10am-6pm;  Tu, Th: 12pm-8pm; F, Sa: 9am-5pm; Su: Closed", "phone": "(312) 747-6479"}}, {"type": "Feature", "geometry": {"type": "Point", "coordinates": [-87.622998964466, 41.897534902299]}, "properties": {"name": "Water Works", "address": "163 Pearson St", "hours": "M-th: 9am-7pm; F, Sa: 9am-5pm; Su: 1pm-5pm", "phone": "(312) 742-8811"}}, {"type": "Feature", "geometry": {"type": "Point", "coordinates": [-87.562136116164, 41.761792625983]}, "properties": {"name": "South Shore", "address": "2505 73rd St", "hours": "M, W: 10am-6pm;  Tu, Th: 12pm-8pm; F, Sa: 9am-5pm; Su: Closed", "phone": "(312) 747-5281"}}, {"type": "Feature", "geometry": {"type": "Point", "coordinates": [-87.645684316254, 41.940092802456]}, "properties": {"name": "Merlo", "address": "644 Belmont Ave", "hours": "M, W: 12pm-8pm; Tu, Th: 10am-6pm; F, Sa: 9am-5pm; Su: Closed", "phone": "(312) 744-1139"}}, {"type": "Feature", "geometry": {"type": "Point", "coordinates": [-87.671825936185, 41.721201982995]}, "properties": {"name": "Beverly", "address": "1962 95th St", "hours": "M, W: 12pm-8pm; Tu, Th: 10am-6pm; F, Sa: 9am-5pm; Su: Closed", "phone": "(312) 747-9673"}}, {"type": "Feature", "geometry": {"type": "Point", "coordinates": [-87.699587919718, 41.998212242087]}, "properties": {"name": "Northtown", "address": "6435 California Ave", "hours": "M, W: 10am-6pm;  Tu, Th: 12pm-8pm; F, Sa: 9am-5pm; Su: Closed", "phone": "(312) 744-2292"}}, {"type": "Feature", "geometry": {"type": "Point", "coordinates": [-87.780185735388, 41.792819235993]}, "properties": {"name": "Garfield Ridge", "address": "6348 Archer Ave", "hours": "M, W: 10am-6pm;  Tu, Th: 12pm-8pm; F, Sa: 9am-5pm; Su: Closed", "phone": "(312) 747-6094"}}, {"type": "Feature", "geometry": {"type": "Point", "coordinates": [-87.60040226851, 41.76231423276]}, "properties": {"name": "Greater Grand Crossing", "address": "1000 73rd St", "hours": "M, W: 12pm-8pm; Tu, Th: 10am-6pm; F, Sa: 9am-5pm; Su: Closed", "phone": "(312) 745-1608"}}, {"type": "Feature", "geometry": {"type": "Point", "coordinates": [-87.602203293403, 41.654748194923]}, "properties": {"name": "Altgeld", "address": "13281 Corliss Ave", "hours": "M, W: 12pm-8pm; Tu, Th: 10am-6pm; F, Sa: 9am-5pm; Su: Closed", "phone": "(312) 747-3270"}}, {"type": "Feature", "geometry": {"type": "Point", "coordinates": [-87.674134473545, 41.692425806406]}, "properties": {"name": "Walker", "address": "11071 Hoyne Ave", "hours": "M, W: 10am-6pm;  Tu, Th: 12pm-8pm; F, Sa: 9am-5pm; Su: Closed", "phone": "(312) 747-1920"}}, {"type": "Feature", "geometry": {"type": "Point", "coordinates": [-87.631870886234, 41.849761420501]}, "properties": {"name": "Chinatown", "address": "2353 Wentworth Ave", "hours": "M, W: 12pm-8pm; Tu, Th: 10am-6pm; F, Sa: 9am-5pm; Su: Closed", "phone": "(312) 747-8013"}}, {"type": "Feature", "geometry": {"type": "Point", "coordinates": [-87.643516927175, 41.67784254808]}, "properties": {"name": "West Pullman", "address": "830 119th St", "hours": "M, W: 12pm-8pm; Tu, Th: 10am-6pm; F, Sa: 9am-5pm; Su: Closed", "phone": "(312) 747-1425"}}, {"type": "Feature", "geometry": {"type": "Point", "coordinates": [-87.81330682611, 41.978060491792]}, "properties": {"name": "Oriole Park", "address": "7454 Balmoral Ave", "hours": "M, W: 12pm-8pm; Tu, Th: 10am-6pm; F, Sa: 9am-5pm; Su: Closed", "phone": "(312) 744-1965"}}, {"type": "Feature", "geometry": {"type": "Point", "coordinates": [-87.694129610404, 41.793664598701]}, "properties": {"name": "Gage Park", "address": "2807 55th St", "hours": "M, W: 10am-6pm;  Tu, Th: 12pm-8pm; F, Sa: 9am-5pm; Su: Closed", "phone": "(312) 747-0032"}}, {"type": "Feature", "geometry": {"type": "Point", "coordinates": [-87.706461802397, 41.894693625756]}, "properties": {"name": "Daley, Richard M.-W Humboldt", "address": "733 Kedzie Ave", "hours": "M, W: 10am-6pm;  Tu, Th: 12pm-8pm; F, Sa: 9am-5pm; Su: Closed", "phone": "(312) 743-0555"}}, {"type": "Feature", "geometry": {"type": "Point", "coordinates": [-87.738250349161, 41.968151058826]}, "properties": {"name": "Mayfair", "address": "4400 Lawrence Ave", "hours": "M, W: 12pm-8pm; Tu, Th: 10am-6pm; F, Sa: 9am-5pm; Su: Closed", "phone": "(312) 744-1254"}}, {"type": "Feature", "geometry": {"type": "Point", "coordinates": [-87.704701391361, 41.873635693753]}, "properties": {"name": "District 11", "address": "3151 Harrison St", "hours": "Open Saturday And Sunday", "phone": "(312) 746-8386"}}, {"type": "Feature", "geometry": {"type": "Point", "coordinates": [-87.644135305857, 41.752273769729]}, "properties": {"name": "District 6", "address": "7808 Halsted St", "hours": "Open Saturday And Sunday", "phone": "(312) 745-3617"}}, {"type": "Feature", "geometry": {"type": "Point", "coordinates": [-87.709657427614, 41.864470352773]}, "properties": {"name": "Douglass", "address": "3353 13th St", "hours": "M, W: 10am-6pm;  Tu, Th: 12pm-8pm; F, Sa: 9am-5pm; Su: Closed", "phone": "(312) 747-3725"}}, {"type": "Feature", "geometry": {"type": "Point", "coordinates": [-87.658066797029, 41.92531635057]}, "properties": {"name": "Lincoln Park", "address": "1150 Fullerton Ave", "hours": "M, W: 10am-6pm;  Tu, Th: 12pm-8pm; F, Sa: 9am-5pm; Su: Closed", "phone": "(312) 744-1926"}}, {"type": "Feature", "geometry": {"type": "Point", "coordinates": [-87.703156609494, 41.782294687023]}, "properties": {"name": "Southwest", "address": "6117 Kedzie Ave", "hours": "Mon - Fri 8:30 A.M. To 4:30 P.M. Sat 9:00 A.M. To 4:00 P.M.", "phone": "(312) 747-0440"}}, {"type": "Feature", "geometry": {"type": "Point", "coordinates": [-87.607135243381, 41.780327339343]}, "properties": {"name": "Coleman", "address": "731 63rd St", "hours": "M, W: 12pm-8pm; Tu, Th: 10am-6pm; F, Sa: 9am-5pm; Su: Closed", "phone": "(312) 747-7760"}}, {"type": "Feature", "geometry": {"type": "Point", "coordinates": [-87.636911055642, 41.90383476841]}, "properties": {"name": "Near North", "address": "310 Division St", "hours": "M, W: 12pm-8pm; Tu, Th: 10am-6pm; F, Sa: 9am-5pm; Su: Closed", "phone": "(312) 744-0991"}}, {"type": "Feature", "geometry": {"type": "Point", "coordinates": [-87.549209892972, 41.659236250907]}, "properties": {"name": "Hegewisch", "address": "3048 130th St", "hours": "M, W: 10am-6pm;  Tu, Th: 12pm-8pm; F, Sa: 9am-5pm; Su: Closed", "phone": "(312) 747-0046"}}, {"type": "Feature", "geometry": {"type": "Point", "coordinates": [-87.617399311871, 41.832255136353]}, "properties": {"name": "King", "address": "3436 King Drive", "hours": "M, W: 10am-6pm;  Tu, Th: 12pm-8pm; F, Sa: 9am-5pm; Su: Closed", "phone": "(312) 747-7543"}}, {"type": "Feature", "geometry": {"type": "Point", "coordinates": [-87.671190518094, 41.999646075962]}, "properties": {"name": "District 24", "address": "6464 Clark St", "hours": "Open Saturday And Sunday", "phone": "(312) 744-5907"}}, {"type": "Feature", "geometry": {"type": "Point", "coordinates": [-87.625222190475, 41.883274941225]}, "properties": {"name": "Renaissance Court", "address": "78 Washington St", "hours": "Mon - Fri 8:30 A.M. To 4:30 P.M. ", "phone": "(312) 744-4550"}}, {"type": "Feature", "geometry": {"type": "Point", "coordinates": [-87.725536764567, 41.879308259799]}, "properties": {"name": "Legler", "address": "115 Pulaski Rd", "hours": "M, W: 12pm-8pm; Tu, Th: 10am-6pm; F, Sa: 9am-5pm; Su: Closed", "phone": "(312) 746-7730"}}, {"type": "Feature", "geometry": {"type": "Point", "coordinates": [-87.764380709661, 41.918443447301]}, "properties": {"name": "District 25", "address": "5555 Grand Ave", "hours": "Open Saturday And Sunday", "phone": "(312) 746-8605"}}, {"type": "Feature", "geometry": {"type": "Point", "coordinates": [-87.706178301057, 41.880833513368]}, "properties": {"name": "Garfield Center", "address": "10 Kedzie Ave", "hours": "Mon - Fri 9:00 A.M. To 5:00 P.M.", "phone": "311"}}, {"type": "Feature", "geometry": {"type": "Point", "coordinates": [-87.708869498464, 41.77891571742]}, "properties": {"name": "District 8", "address": "3420 63rd St", "hours": "Open Saturday And Sunday", "phone": "(312) 747-8730"}}, {"type": "Feature", "geometry": {"type": "Point", "coordinates": [-87.551470156896, 41.737672809157]}, "properties": {"name": "South Chicago Center", "address": "8650 Commercial Ave", "hours": "Mon - Fri 9:00 A.M. To 5:00 P.M.", "phone": "311"}}, {"type": "Feature", "geometry": {"type": "Point", "coordinates": [-87.643218990325, 41.903246987971]}, "properties": {"name": "District 18", "address": "1160 Larrabee St", "hours": "Open Saturday And Sunday", "phone": "(312) 742-5870"}}, {"type": "Feature", "geometry": {"type": "Point", "coordinates": [-87.670265910762, 41.94051995056]}, "properties": {"name": "Lincoln Belmont", "address": "1659 Melrose St", "hours": "M, W: 10am-6pm;  Tu, Th: 12pm-8pm; F, Sa: 9am-5pm; Su: Closed", "phone": "(312) 744-0166"}}, {"type": "Feature", "geometry": {"type": "Point", "coordinates": [-87.747891081316, 41.895009198183]}, "properties": {"name": "West Chicago Ave", "address": "4856 Chicago Ave", "hours": "M, W: 10am-6pm;  Tu, Th: 12pm-8pm; F, Sa: 9am-5pm; Su: Closed", "phone": "(312) 743-0260"}}, {"type": "Feature", "geometry": {"type": "Point", "coordinates": [-87.680343003695, 41.912276181145]}, "properties": {"name": "Bucktown-Wicker Park", "address": "1701 Milwaukee Ave", "hours": "M, W: 12pm-8pm; Tu, Th: 10am-6pm; F, Sa: 9am-5pm; Su: Closed", "phone": "(312) 744-6022"}}, {"type": "Feature", "geometry": {"type": "Point", "coordinates": [-87.71358529181, 41.97484541005]}, "properties": {"name": "Albany Park", "address": "5150 Kimball Ave", "hours": "M, W: 10am-6pm;  Tu, Th: 12pm-8pm; F, Sa: 9am-5pm; Su: Closed", "phone": "(312) 744-1933"}}, {"type": "Feature", "geometry": {"type": "Point", "coordinates": [-87.726486375821, 41.801151640839]}, "properties": {"name": "Archer Heights", "address": "5055 Archer Ave", "hours": "M, W: 12pm-8pm; Tu, Th: 10am-6pm; F, Sa: 9am-5pm; Su: Closed", "phone": "(312) 747-9241"}}, {"type": "Feature", "geometry": {"type": "Point", "coordinates": [-87.765721907108, 41.889239714781]}, "properties": {"name": "Austin", "address": "5615 Race Ave", "hours": "M, W: 12pm-8pm; Tu, Th: 10am-6pm; F, Sa: 9am-5pm; Su: Closed", "phone": "(312) 746-5038"}}, {"type": "Feature", "geometry": {"type": "Point", "coordinates": [-87.533510695971, 41.7027701212]}, "properties": {"name": "Vodak-East Side", "address": "3710 106th St", "hours": "M, W: 12pm-8pm; Tu, Th: 10am-6pm; F, Sa: 9am-5pm; Su: Closed", "phone": "(312) 747-5500"}}, {"type": "Feature", "geometry": {"type": "Point", "coordinates": [-87.549776198134, 41.730911784724]}, "properties": {"name": "South Chicago", "address": "9055 Houston Ave", "hours": "M, W: 12pm-8pm; Tu, Th: 10am-6pm; F, Sa: 9am-5pm; Su: Closed", "phone": "(312) 747-8065"}}, {"type": "Feature", "geometry": {"type": "Point", "coordinates": [-87.754632219387, 41.938785132223]}, "properties": {"name": "Portage-Cragin", "address": "5108 Belmont Ave", "hours": "M, W: 12pm-8pm; Tu, Th: 10am-6pm; F, Sa: 9am-5pm; Su: Closed", "phone": "(312) 744-0152"}}, {"type": "Feature", "geometry": {"type": "Point", "coordinates": [-87.660109414973, 41.971507829063]}, "properties": {"name": "Bezazian", "address": "1226 Ainslie St", "hours": "M, W: 12pm-8pm; Tu, Th: 10am-6pm; F, Sa: 9am-5pm; Su: Closed", "phone": "(312) 744-0019"}}, {"type": "Feature", "geometry": {"type": "Point", "coordinates": [-87.762118355819, 41.997244126474]}, "properties": {"name": "Edgebrook", "address": "5331 Devon Ave", "hours": "M, W: 12pm-8pm; Tu, Th: 10am-6pm; F, Sa: 9am-5pm; Su: Closed", "phone": "(312) 744-8313"}}, {"type": "Feature", "geometry": {"type": "Point", "coordinates": [-87.627369119791, 41.858753483297]}, "properties": {"name": "District 1", "address": "1718 State St", "hours": "Open Saturday And Sunday", "phone": "(312) 745-4290"}}, {"type": "Feature", "geometry": {"type": "Point", "coordinates": [-87.66086368854, 41.779554236061]}, "properties": {"name": "District 7", "address": "1438 63rd St", "hours": "Open Saturday And Sunday", "phone": "(312) 747-8223"}}, {"type": "Feature", "geometry": {"type": "Point", "coordinates": [-87.785949733447, 41.936611588053]}, "properties": {"name": "West Belmont", "address": "3104 Narragansett Ave", "hours": "M, W: 10am-6pm;  Tu, Th: 12pm-8pm; F, Sa: 9am-5pm; Su: Closed", "phone": "(312) 746-5142"}}, {"type": "Feature", "geometry": {"type": "Point", "coordinates": [-87.766223255962, 41.974068750644]}, "properties": {"name": "District 16", "address": "5151 Milwaukee Ave", "hours": "Open Saturday And Sunday", "phone": "(312) 742-4480"}}, {"type": "Feature", "geometry": {"type": "Point", "coordinates": [-87.614879554056, 41.751087876725]}, "properties": {"name": "Whitney M. Young, Jr.", "address": "7901 King Drive", "hours": "M, W: 10am-6pm;  Tu, Th: 12pm-8pm; F, Sa: 9am-5pm; Su: Closed", "phone": "(312) 747-0039"}}, {"type": "Feature", "geometry": {"type": "Point", "coordinates": [-87.798216749286, 41.991950843185]}, "properties": {"name": "Roden", "address": "6083 Northwest Highway", "hours": "M, W: 10am-6pm;  Tu, Th: 12pm-8pm; F, Sa: 9am-5pm; Su: Closed", "phone": "(312) 744-1478"}}, {"type": "Feature", "geometry": {"type": "Point", "coordinates": [-87.622729231002, 41.807406361742]}, "properties": {"name": "Hall", "address": "4801 Michigan Ave", "hours": "M, W: 10am-6pm;  Tu, Th: 12pm-8pm; F, Sa: 9am-5pm; Su: Closed", "phone": "(312) 747-2541"}}, {"type": "Feature", "geometry": {"type": "Point", "coordinates": [-87.684481337649, 41.962503821186]}, "properties": {"name": "Sulzer Regional", "address": "4455 Lincoln Ave", "hours": "M-th: 9am-9pm; F, Sa: 9am-5pm; Su: 1pm-5pm", "phone": "(312) 744-7616"}}, {"type": "Feature", "geometry": {"type": "Point", "coordinates": [-87.618214239545, 41.694399347866]}, "properties": {"name": "Pullman", "address": "11001 Indiana Ave", "hours": "M, W: 10am-6pm;  Tu, Th: 12pm-8pm; F, Sa: 9am-5pm; Su: Closed", "phone": "(312) 747-2033"}}, {"type": "Feature", "geometry": {"type": "Point", "coordinates": [-87.64635129661, 41.837703129896]}, "properties": {"name": "District 9", "address": "3120 Halsted St", "hours": "Open Saturday And Sunday", "phone": "(312) 747-8227"}}, {"type": "Feature", "geometry": {"type": "Point", "coordinates": [-87.581279114899, 41.751485284224]}, "properties": {"name": "Southeast", "address": "1767 79th St", "hours": "Mon - Fri 8:30 A.M. To 4:30 P.M. Sat - Sun 9:00 A.M. To 4:00 P.M", "phone": "(312) 747-0189"}}, {"type": "Feature", "geometry": {"type": "Point", "coordinates": [-87.813422762481, 41.943275230685]}, "properties": {"name": "Dunning", "address": "7455 Cornelia Ave", "hours": "M, W: 12pm-8pm; Tu, Th: 10am-6pm; F, Sa: 9am-5pm; Su: Closed", "phone": "(312) 743-0480"}}, {"type": "Feature", "geometry": {"type": "Point", "coordinates": [-87.642562485244, 41.815338259607]}, "properties": {"name": "Canaryville", "address": "642 43rd St", "hours": "M, W: 12pm-8pm; Tu, Th: 10am-6pm; F, Sa: 9am-5pm; Su: Closed", "phone": "(312) 747-0644"}}, {"type": "Feature", "geometry": {"type": "Point", "coordinates": [-87.652931668242, 41.750524120955]}, "properties": {"name": "Englewood Center", "address": "1140 79th St", "hours": "Mon - Fri 9:00 A.M. To 5:00 P.M.", "phone": "311"}}, {"type": "Feature", "geometry": {"type": "Point", "coordinates": [-87.697369446149, 41.920943814403]}, "properties": {"name": "District 14", "address": "2150 California Ave", "hours": "Open Saturday And Sunday", "phone": "(312) 744-8250"}}, {"type": "Feature", "geometry": {"type": "Point", "coordinates": [-87.722655957667, 41.938325732152]}, "properties": {"name": "Northwest", "address": "3160 Milwaukee Ave", "hours": "Mon - Fri 8:30 A.M. To 4:30 P.M. Sat - Sun 9:00 A.M. To 4:00 P.M", "phone": "(312) 744-6681"}}, {"type": "Feature", "geometry": {"type": "Point", "coordinates": [-87.672171391149, 41.898688275176]}, "properties": {"name": "District 13", "address": "937 Wood St", "hours": "Open Saturday And Sunday", "phone": "(312) 746-8357"}}, {"type": "Feature", "geometry": {"type": "Point", "coordinates": [-87.679757685176, 41.968694977057]}, "properties": {"name": "Northeast", "address": "2019 Lawrence Ave", "hours": "Mon - Fri 8:30 A.M. To 4:30 P.M. Sat 9:00 A.M. To 4:00 P.M.", "phone": "(312) 744-0784"}}, {"type": "Feature", "geometry": {"type": "Point", "coordinates": [-87.697839323351, 41.984663209242]}, "properties": {"name": "Budlong Woods", "address": "5630 Lincoln Ave", "hours": "M, W: 12pm-8pm; Tu, Th: 10am-6pm; F, Sa: 9am-5pm; Su: Closed", "phone": "(312) 742-9590"}}, {"type": "Feature", "geometry": {"type": "Point", "coordinates": [-87.708617688296, 41.856617140752]}, "properties": {"name": "District 10", "address": "3315 Ogden Ave", "hours": "Open Saturday And Sunday", "phone": "(312) 747-7511"}}, {"type": "Feature", "geometry": {"type": "Point", "coordinates": [-87.716917711174, 41.953843708798]}, "properties": {"name": "Independence", "address": "3548 Irving Park Rd", "hours": "M, W: 10am-6pm;  Tu, Th: 12pm-8pm; F, Sa: 9am-5pm; Su: Closed", "phone": "(312) 744-0900"}}, {"type": "Feature", "geometry": {"type": "Point", "coordinates": [-87.668498932569, 41.896034425296]}, "properties": {"name": "West Town", "address": "1625 Chicago Ave", "hours": "M, W: 10am-6pm;  Tu, Th: 12pm-8pm; F, Sa: 9am-5pm; Su: Closed", "phone": "(312) 743-0450"}}, {"type": "Feature", "geometry": {"type": "Point", "coordinates": [-87.734320311893, 41.909821032005]}, "properties": {"name": "North Pulaski", "address": "4300 North Ave", "hours": "M, W: 10am-6pm;  Tu, Th: 12pm-8pm; F, Sa: 9am-5pm; Su: Closed", "phone": "(312) 744-9573"}}, {"type": "Feature", "geometry": {"type": "Point", "coordinates": [-87.728016064468, 41.966172550361]}, "properties": {"name": "District 17", "address": "4650 Pulaski Rd", "hours": "Open Saturday And Sunday", "phone": "(312) 742-4410"}}, {"type": "Feature", "geometry": {"type": "Point", "coordinates": [-87.646223807591, 41.832544599344]}, "properties": {"name": "Daley, Richard J.-Bridgeport", "address": "3400 Halsted St", "hours": "M, W: 10am-6pm;  Tu, Th: 12pm-8pm; F, Sa: 9am-5pm; Su: Closed", "phone": "(312) 747-8990"}}, {"type": "Feature", "geometry": {"type": "Point", "coordinates": [-87.679163444334, 41.881177180457]}, "properties": {"name": "Manning", "address": "6 Hoyne Ave", "hours": "M, W: 12pm-8pm; Tu, Th: 10am-6pm; F, Sa: 9am-5pm; Su: Closed", "phone": "(312) 746-6800"}}, {"type": "Feature", "geometry": {"type": "Point", "coordinates": [-87.657295146602, 41.732388466473]}, "properties": {"name": "Brainerd", "address": "1350 89th St", "hours": "M, W: 10am-6pm;  Tu, Th: 12pm-8pm; F, Sa: 9am-5pm; Su: Closed", "phone": "(312) 747-6291"}}, {"type": "Feature", "geometry": {"type": "Point", "coordinates": [-87.779448291324, 41.953033455513]}, "properties": {"name": "Austin-Irving", "address": "6100 Irving Park Rd", "hours": "M, W: 12pm-8pm; Tu, Th: 10am-6pm; F, Sa: 9am-5pm; Su: Closed", "phone": "(312) 744-6222"}}, {"type": "Feature", "geometry": {"type": "Point", "coordinates": [-87.72357170492, 41.778718730033]}, "properties": {"name": "West Lawn", "address": "4020 63rd St", "hours": "M, W: 12pm-8pm; Tu, Th: 10am-6pm; F, Sa: 9am-5pm; Su: Closed", "phone": "(312) 747-7381"}}, {"type": "Feature", "geometry": {"type": "Point", "coordinates": [-87.7364671, 41.9098432]}, "properties": {"name": "Trina Davila Center", "address": "4312 W North Ave", "hours": "Mon - Fri 9:00 A.M. To 5:00 P.M.", "phone": "311"}}]}